{"name": "BOOTS", "address": "TERMINAL 1 AIRSIDE\nMANCHESTER AIRPORT\nMANCHESTER", "postcode": "M90 3HG", "latitude": 53.361932, "longitude": -2.271878}
{"name": "BOOTS", "address": "UNIT 24 DEPARTURES LEVEL\nTERMINAL 5 LANDSIDE\nHEATHROW AIRPORT\nMIDDLESEX", "postcode": "TW6 2RQ", "latitude": null, "longitude": null}
{"name": "BOOTS", "address": "TERMINAL THREE LANDSIDE\nHEATHROW AIRPORT\nHOUNSLOW\nMIDDLESEX", "postcode": "TW6 1QG", "latitude": 51.470836, "longitude": -0.458283}
{"name": "FOUR ACRE CHEMIST", "address": "1&2 FOUR ACRE LANE\nFOUR ACRE PRECINCT\nST HELENS", "postcode": "WA9 4BZ", "latitude": 53.419936, "longitude": -2.724168}
{"name": "BOOTS", "address": "11 OCTAGON ARCADE\nLIVERPOOL STREET STATION\n \nLONDON", "postcode": "EC2M 2AB", "latitude": 51.518226, "longitude": -0.083148}
{"name": "BOOTS", "address": "WATERLOO STATION\n\nLONDON", "postcode": "SE1 7LY", "latitude": 51.503146, "longitude": -0.113259}
{"name": "OSTOMED HEALTHCARE", "address": "UNIT 2, CREAMERY IND EST\nKENLIS ROAD\nGARSTANG\nLANCASHIRE", "postcode": "PR3 1GD", "latitude": 53.890288, "longitude": -2.747368}
{"name": "BOOTS", "address": "UNIT 5\nARRIVALS SOUTH TERMINAL\nGATWICK AIRPORT\nWEST SUSSEX", "postcode": "RH6 0NN", "latitude": 51.156253, "longitude": -0.163196}
{"name": "DEYSBROOK PHARMACY", "address": "1 WINTERBURN CRESCENT\nWEST DERBY\nLIVERPOOL\nMERSEYSIDE", "postcode": "L12 8TQ", "latitude": 53.431273, "longitude": -2.895944}
{"name": "DOCKLANDS PHARMACY", "address": "100 SPINDRIFT AVENUE\n\nLONDON", "postcode": "E14 9WU", "latitude": 51.491152, "longitude": -0.021143}
{"name": "BOOTS", "address": "UNIT 57\nPLATFORM 1\nPADDINGTON STATION\nLONDON", "postcode": "W2 1BA", "latitude": 51.515521, "longitude": -0.176395}
{"name": "BOOTS", "address": "CITY STATION CONCOURSE\n\nLEEDS\nWEST YORKSHIRE", "postcode": "LS1 4DT", "latitude": 53.795047, "longitude": -1.547839}
{"name": "GATEHOUSE PHARMACY", "address": "THE GATE HOUSE\nLONG CROFT, MAPPLEWELL\nBARNSLEY", "postcode": "S75 6FH", "latitude": 53.587152, "longitude": -1.509011}
{"name": "BOOTS", "address": "UNIT 14\nCANADA SQUARE\nCANARY WHARF\nLONDON", "postcode": "E14 5AX", "latitude": 51.504938, "longitude": -0.019595}
{"name": "WELL", "address": "161-162 HIGH STREET\n\nSTOCKTON-ON-TEES\nCLEVELAND", "postcode": "TS18 1PL", "latitude": 54.567303, "longitude": -1.313275}
{"name": "TUDOR LODGE PHARMACY", "address": "TUDOR LODGE SURGERY\n3 NITHSDALE ROAD\nWESTON-SUPER-MARE", "postcode": "BS23 4JP", "latitude": 51.332396, "longitude": -2.975378}
{"name": "HASSENGATE PHARMACY", "address": "SOUTHEND ROAD\n\nSTANFORD-LE-HOPE\nESSEX", "postcode": "SS17 0PH", "latitude": 51.519317, "longitude": 0.427407}
{"name": "GRAHAM ROAD PHARMACY", "address": "GRAHAM ROAD SURGERY\n22 GRAHAM ROAD\nWESTON-SUPER-MARE\nNORTH SOMERSET", "postcode": "BS23 1YA", "latitude": 51.34467, "longitude": -2.97439}
{"name": "BOOTS", "address": "UNIT 12 WESTERN CONCOURSE\nKINGS CROSS STATION\nEUSTON ROAD\nLONDON", "postcode": "N1C 4AL", "latitude": 51.530874, "longitude": -0.12342}
{"name": "BOOTS", "address": "UNIT 42B\nVICTORIA STATION\n\nLONDON", "postcode": "SW1V 1JU", "latitude": 51.495735, "longitude": -0.144741}
{"name": "ASH TREES PHARMACY", "address": "ASH TREES SURGERY\nMARKET STREET\nCARNFORTH\nLANCASHIRE", "postcode": "LA5 9JU", "latitude": 54.12945, "longitude": -2.768901}
{"name": "KELLY CHEMIST", "address": "32 MYTON ROAD\nINGLEBY BARWICK\nSTOCKTON-ON-TEES\nCLEVELAND", "postcode": "TS17 0WG", "latitude": 54.518036, "longitude": -1.318629}
{"name": "HEREFORD PHARMACY", "address": "THE PHARMACY UNIT\nSTATION MC,STATION APPROA\nHEREFORD", "postcode": "HR1 1BB", "latitude": 52.061798, "longitude": -2.711285}
{"name": "BOOTS", "address": "21 NEW CHANGE PASSAGE\n\n\nLONDON", "postcode": "EC4M 9AG", "latitude": 51.51388, "longitude": -0.095795}
{"name": "BOOTS", "address": "105-109 THE STRAND\n \n \nLONDON", "postcode": "WC2R 0AA", "latitude": 51.510588, "longitude": -0.120258}
{"name": "BOOTS", "address": "107 CHEAPSIDE\n\n\nLONDON", "postcode": "EC2V 6DN", "latitude": 51.514177, "longitude": -0.093577}
{"name": "BOOTS", "address": "60 GRACECHURCH STREET\n\n\nLONDON", "postcode": "EC3V 0HR", "latitude": 51.511724, "longitude": -0.084762}
{"name": "BOOTS", "address": "5 CATHEDRAL WALK\nVICTORIA\n\nLONDON", "postcode": "SW1E 5JH", "latitude": 51.497122, "longitude": -0.140896}
{"name": "BOOTS", "address": "129-133 AVIATION HOUSE\nKINGSWAY, HOLBURN\nLONDON", "postcode": "WC2B 6NH", "latitude": 51.516961, "longitude": -0.120561}
{"name": "MEANWOOD PHARMACY", "address": "569-571 MEANWOOD ROAD\n\nLEEDS", "postcode": "LS6 4AY", "latitude": 53.827132, "longitude": -1.566712}
{"name": "BOOTS", "address": "31 BROADWAY SHOPPING CTR.\n\nHAMMERSMITH\nLONDON", "postcode": "W6 9YD", "latitude": 51.492304, "longitude": -0.224556}
{"name": "BOOTS", "address": "426-427 STRAND\n\n\nLONDON", "postcode": "WC2R 0QE", "latitude": 51.509674, "longitude": -0.12387}
{"name": "STONE PHARMACY", "address": "1 CHURCH STREET\nDARFIELD\nBARNSLEY\nSOUTH YORKSHIRE", "postcode": "S73 9JX", "latitude": 53.533823, "longitude": -1.370689}
{"name": "CENTRAL PHARMACY", "address": "142 NORTHDOWN ROAD\nCLIFTONVILLE\nMARGATE\nKENT", "postcode": "CT9 2QN", "latitude": 51.388215, "longitude": 1.394737}
{"name": "MEDWAY PHARMACY", "address": "465 CANTERBURY STREET\n \nGILLINGHAM\nKENT", "postcode": "ME7 5LJ", "latitude": 51.37623, "longitude": 0.551101}
{"name": "OSWALDTWISTLE PHARMACY", "address": "300 UNION ROAD\nOSWALDTWISLE\nACCRINGTON", "postcode": "BB5 3JD", "latitude": 53.742023, "longitude": -2.399972}
{"name": "ROSEHILL PHARMACY", "address": "299 NORMANTON ROAD\nNORMANTON\nDERBY", "postcode": "DE23 6UU", "latitude": 52.909762, "longitude": -1.478115}
{"name": "ERDINGTON DAY NIGHT CHEMIST", "address": "213 HIGH STREET\nERDINGTON\nBIRMINGHAM", "postcode": "B23 6SS", "latitude": 52.522739, "longitude": -1.841887}
{"name": "COHENS CHEMIST", "address": "ROOLEY LANE\n \nBRADFORD\nWEST YORKSHIRE", "postcode": "BD4 7SS", "latitude": 53.772814, "longitude": -1.73089}
{"name": "ALL SAINTS PHARMACY", "address": "28 ALL SAINTS ROAD\n \nBURTON-ON-TRENT", "postcode": "DE14 3LS", "latitude": 52.794382, "longitude": -1.643586}
{"name": "BOOTS", "address": "UNIT 80\nTHE GALLERIES\nWASHINGTON\nTYNE & WEAR", "postcode": "NE38 7RT", "latitude": 54.899583, "longitude": -1.532511}
{"name": "BOOTS", "address": "3-5 UPPER MARKET SQUARE\nHANLEY\nSTOKE-ON-TRENT\nSTAFFORDSHIRE", "postcode": "ST1 1PZ", "latitude": 53.026534, "longitude": -2.173894}
{"name": "BOOTS", "address": "54-62 PIER AVENUE\n\nCLACTON-ON-SEA\nESSEX", "postcode": "CO15 1QN", "latitude": 51.789276, "longitude": 1.152299}
{"name": "BOOTS", "address": "124-126 HIGH STREET\nNEWPORT\nISLE OF WIGHT", "postcode": "PO30 1TP", "latitude": 50.700226, "longitude": -1.294823}
{"name": "KAMSONS PHARMACY", "address": "1 YORK BUILDINGS\nWELLINGTON PLACE\nHASTINGS\nEAST SUSSEX", "postcode": "TN34 1NN", "latitude": 50.855608, "longitude": 0.581135}
{"name": "BOOTS", "address": "72-74 HIGH STREET\n\nWORCESTER", "postcode": "WR1 2EU", "latitude": 52.192086, "longitude": -2.221581}
{"name": "BOOTS", "address": "12 MILL STREET MALL\nTHE GROSVENOR CENTRE\nMACCLESFIELD\nCHESHIRE", "postcode": "SK11 6AJ", "latitude": 53.260333, "longitude": -2.126359}
{"name": "BOOTS", "address": "13-15 FRENCHGATE\nFRENCHGATE CENTRE\nDONCASTER\nSOUTH YORKSHIRE", "postcode": "DN1 1QB", "latitude": 53.524059, "longitude": -1.136521}
{"name": "WELL", "address": "BEESTON DISTRICT CENTRE\nTOWN STREET\nBEESTON\nLEEDS", "postcode": "LS11 8PN", "latitude": 53.772415, "longitude": -1.569152}
{"name": "HEATHCOTE PHARMACY", "address": "UNIT 3,LOWER HEATHCOTE SQ\nVICKERS WAY\nWARWICK", "postcode": "CV34 7BR", "latitude": 52.266481, "longitude": -1.553282}
{"name": "BOOTS", "address": "11-13 CORNHILL\n \nBURY ST EDMUNDS\nSUFFOLK", "postcode": "IP33 1BX", "latitude": 52.245611, "longitude": 0.711491}
{"name": "BOOTS", "address": "13-15 ELLISON WALK\nTRINITY SQUARE\nGATESHEAD\nTYNE & WEAR", "postcode": "NE8 1BF", "latitude": 54.962324, "longitude": -1.602735}
{"name": "BOOTS", "address": "4-6 HIGH STREET\n\nSHEFFIELD", "postcode": "S1 1QF", "latitude": 53.382407, "longitude": -1.468101}
{"name": "BOOTS", "address": "31 THE HOWARD CENTRE\nWELWYN GARDEN CITY\nHERTFORDSHIRE", "postcode": "AL8 6HA", "latitude": 51.801207, "longitude": -0.204572}
{"name": "BOOTS", "address": "40-41 DUDLEY STREET\nWOLVERHAMPTON", "postcode": "WV1 3ER", "latitude": 52.584875, "longitude": -2.126894}
{"name": "BOOTS", "address": "5 TAVERN STREET\nIPSWICH", "postcode": "IP1 3AA", "latitude": 52.057936, "longitude": 1.153929}
{"name": "BOOTS", "address": "251 HIGH STREET\n\nEXETER", "postcode": "EX4 3QD", "latitude": 50.7255, "longitude": -3.527931}
{"name": "WELL", "address": "WILLOWBROOK MEDICAL CTR.\n195 THURNCOURT ROAD\nTHURNBY LODGE\nLEICESTER", "postcode": "LE5 2NL", "latitude": 52.637548, "longitude": -1.048495}
{"name": "WELL", "address": "THE PHARMACY\nBUXTON PLACE\nNEWTON BAR\nWAKEFIELD", "postcode": "WF1 3JQ", "latitude": 53.692762, "longitude": -1.50415}
{"name": "WELL", "address": "276 MANCHESTER ROAD\nWARRINGTON\nCHESHIRE", "postcode": "WA1 3RB", "latitude": 53.396596, "longitude": -2.571248}
{"name": "PRESCRIPTION 2 YOU HEALTHCARE LTD", "address": "89/91 PIER AVENUE\n\nCLACTON ON SEA\nESSEX", "postcode": "CO15 1QE", "latitude": 51.789204, "longitude": 1.151538}
{"name": "ST.CLARE CHEMIST", "address": "21 NORFOLK HOUSE\nGEORGE STREET\nCROYDON", "postcode": "CR0 1LG", "latitude": 51.374536, "longitude": -0.096194}
{"name": "SHEVINGTON COMMUNITY PHARMACY", "address": "THE SURGERY\nHOUGHTON LANE, SHEVINGTON\nWIGAN\nGREATER MANCHESTER", "postcode": "WN6 8ET", "latitude": 53.574041, "longitude": -2.69942}
{"name": "MILL PHARMACY", "address": "HADLEIGH HEALTH CENTRE\nMARKET PLACE, HADLEIGH\nIPSWICH", "postcode": "IP7 5DN", "latitude": 52.043021, "longitude": 0.953136}
{"name": "BOOTS", "address": "65 MOORS WALK\nWELWYN GARDEN CITY\nHERTFORDSHIRE", "postcode": "AL7 2BQ", "latitude": 51.801194, "longitude": -0.172229}
{"name": "NORTHFIELD PHARMACY", "address": "30 NORTHFIELD AVENUE\nLONDON", "postcode": "W13 9RL", "latitude": 51.504634, "longitude": -0.319249}
{"name": "WELL", "address": "ROPE LANE MEDICAL CENTRE\nROPE LANE, SHAVINGTON\nCREWE\nCHESHIRE", "postcode": "CW2 5DA", "latitude": 53.06655, "longitude": -2.453958}
{"name": "WELL", "address": "FOUNTAINS HEALTH\nDELAMERE STREET\nCHESTER\nCHESHIRE", "postcode": "CH1 4DS", "latitude": 53.195093, "longitude": -2.892972}
{"name": "BOOTS", "address": "31 STONEYCROFT\nWARNERS END\nHEMEL HEMPSTEAD\nHERTFORDSHIRE", "postcode": "HP1 2QF", "latitude": 51.756091, "longitude": -0.49372}
{"name": "WELLBEING PHARMACY", "address": "29 CHESTERFIELD DRIVE\n\nIPSWICH\nSUFFOLK", "postcode": "IP1 6DW", "latitude": 52.07623, "longitude": 1.132012}
{"name": "CAVALRY ROAD PHARMACY", "address": "15 CAVALRY ROAD\n \nCOLCHESTER\nESSEX", "postcode": "CO2 7GH", "latitude": 51.881819, "longitude": 0.892518}
{"name": "DAY LEWIS PHARMACY", "address": "253 GIPSY ROAD\n\nWEST NORWOOD\nLONDON", "postcode": "SE27 9QY", "latitude": 51.427529, "longitude": -0.087821}
{"name": "BOOTS", "address": "DRAKE CIRCUS SHOPPING CTR\n1 CHARLES STREET\nPLYMOUTH\nDEVON", "postcode": "PL1 1EA", "latitude": 50.372522, "longitude": -4.137765}
{"name": "BOOTS", "address": "42 UNION ST\nKINGSTON-UPON-THAMES\nSURREY", "postcode": "KT1 1RP", "latitude": 51.409735, "longitude": -0.305404}
{"name": "JADE PHARMACY (HODDESDON)", "address": "16 FAWKON WALK\n\nHODDESDON\nHERTFORDSHIRE", "postcode": "EN11 8TJ", "latitude": 51.760165, "longitude": -0.012779}
{"name": "PIKES LANE PHARMACY", "address": "PIKES LANE RESOURCE CTR\nDEANE ROAD\nBOLTON", "postcode": "BL3 5HP", "latitude": 53.572728, "longitude": -2.446348}
{"name": "BOOTS", "address": "222-224 SOUTHCHURCH DRIVE\nCLIFTON\nNOTTINGHAM", "postcode": "NG11 8AA", "latitude": 52.903211, "longitude": -1.177778}
{"name": "MORRISONS PHARMACY", "address": "GOOSE STREET\nOFF BROOK LANE\nNEWCASTLE UNDER LYME\nSTAFFORDSHIRE", "postcode": "ST5 3HY", "latitude": 53.007772, "longitude": -2.227483}
{"name": "FONTAIN PHARMACY", "address": "290 MUNSTER ROAD\n\nLONDON", "postcode": "SW6 6BQ", "latitude": 51.481206, "longitude": -0.212607}
{"name": "NORFOLK STREET PHARMACY", "address": "1-5 NORFOLK STREET\nSHELTON\nSTOKE ON TRENT", "postcode": "ST1 4PB", "latitude": 53.015778, "longitude": -2.182495}
{"name": "WELL", "address": "CHERRY TREE ROAD\nMARTON\nBLACKPOOL\nLANCASHIRE", "postcode": "FY4 4QH", "latitude": 53.797619, "longitude": -3.018481}
{"name": "GREEN LIGHT PHARMACY", "address": "HARFORD STREET HEALTH CTR\n115 HARFORD STREET\n\nLONDON", "postcode": "E1 4FG", "latitude": 51.51839, "longitude": -0.038112}
{"name": "BOOTS", "address": "UNIT 3B\nBOREHAMWOOD RETAIL PARK\nBOREHAMWOOD", "postcode": "WD6 4PR", "latitude": 51.65656, "longitude": -0.27754}
{"name": "ABINGTON PHARMACY", "address": "51F BEECH AVENUE\n\nNORTHAMPTON", "postcode": "NN3 2JG", "latitude": 52.253262, "longitude": -0.865891}
{"name": "MORRISONS PHARMACY", "address": "BRUNSWICK ROAD\n \nPENRITH\nCUMBRIA", "postcode": "CA11 7JU", "latitude": 54.664684, "longitude": -2.756795}
{"name": "TESCO INSTORE PHARMACY", "address": "FERNDOWN DISTRICT CENTRE\nFERNDOWN\nDORSET", "postcode": "BH22 9TH", "latitude": 50.801812, "longitude": -1.891441}
{"name": "BOOTS", "address": "1 NEWARK STREET\n\nBATH", "postcode": "BA1 1AT", "latitude": 51.378495, "longitude": -2.358531}
{"name": "STICKLAND CHEMIST", "address": "4-6 THE ARCADE\nS.KENSINGTON UNDERGROUND\n\nLONDON", "postcode": "SW7 2NA", "latitude": 51.494159, "longitude": -0.174255}
{"name": "BOOTS", "address": "THE WARRENS MEDICAL CTR\nARROWE PK RD,THINGWALL\nWIRRAL", "postcode": "CH49 5PL", "latitude": 53.35904, "longitude": -3.091329}
{"name": "BOOTS", "address": "107 VICTORIA STREET\n\n\nLONDON", "postcode": "SW1E 6RA", "latitude": 51.496857, "longitude": -0.137795}
{"name": "BOOTS", "address": "332 CHISWICK HIGH ROAD\nCHISWICK\n\nLONDON", "postcode": "W4 5TA", "latitude": 51.492629, "longitude": -0.262436}
{"name": "BADHAM PHARMACY", "address": "23 CHURCH ROAD\nBISHOPS CLEEVE\nCHELTENHAM\nGLOUCESTERSHIRE", "postcode": "GL52 8LR", "latitude": 51.947456, "longitude": -2.061023}
{"name": "BOOTS", "address": "28-34 WOODBRIDGE RD EAST\n\nIPSWICH\nSUFFOLK", "postcode": "IP4 5PB", "latitude": 52.060266, "longitude": 1.195518}
{"name": "TESCO INSTORE PHARMACY", "address": "TESCO STORE\n227 KENNINGTON LANE\nLONDON", "postcode": "SE11 5QU", "latitude": 51.486711, "longitude": -0.113884}
{"name": "SUPERDRUG PHARMACY", "address": "7-9 PICCADILLY\n \nMANCHESTER", "postcode": "M1 1LZ", "latitude": 53.481814, "longitude": -2.237805}
{"name": "MCPARLAND HA LTD", "address": "UNIT 2 HEALTH PARADE\nGRAHAME PARK WAY\nHENDON VILLAGE", "postcode": "NW9 5ZN", "latitude": 51.596927, "longitude": -0.244465}
{"name": "CHANA CHEMIST", "address": "96-98 HIGH STREET\nHARLESDEN\nLONDON", "postcode": "NW10 4SL", "latitude": 51.535816, "longitude": -0.245357}
{"name": "TESCO INSTORE PHARMACY", "address": "60 ELLESMERE CENTRE\n \nWALKDEN\nMANCHESTER", "postcode": "M28 3BT", "latitude": 53.525923, "longitude": -2.401145}
{"name": "HERBERT AND HERBERT", "address": "106 STAINES ROAD\n\nHOUNSLOW", "postcode": "TW3 3LH", "latitude": 51.46677, "longitude": -0.37044}
{"name": "MELKSHAM PHARMACY", "address": "GIFFORDS PRIMARY CARE CTR\nSPA ROAD\nMELKSHAM\nWILTSHIRE", "postcode": "SN12 7EA", "latitude": 51.367813, "longitude": -2.130879}
{"name": "TESCO INSTORE PHARMACY", "address": "HALL ROAD\n\nHULL", "postcode": "HU6 7XP", "latitude": 53.788516, "longitude": -0.363775}
{"name": "BOOTS", "address": "BROMBOROUGH RETAIL PARK\nWELTON ROAD\nBROMBOROUGH\nWIRRAL,MERSEYSIDE", "postcode": "CH62 3PN", "latitude": 53.34099, "longitude": -2.977018}
{"name": "TESCO INSTORE PHARMACY", "address": "LONDON ROAD\nLOUDWATER\nHIGH WYCOMBE\nBUCKINGHAMSHIRE", "postcode": "HP10 9RT", "latitude": 51.604867, "longitude": -0.69272}
{"name": "TESCO INSTORE PHARMACY", "address": "TESCO INSTORE PHARMACY\nTESCO STORE\nGARRAS WHARF,TRURO\nCORNWALL", "postcode": "TR1 2TN", "latitude": 50.260964, "longitude": -5.046918}
{"name": "ROSE CHEMIST", "address": "243 UPPER STREET\n\nISLINGTON\nLONDON", "postcode": "N1 1RU", "latitude": 51.545273, "longitude": -0.103542}
{"name": "SIGNATURE PHARMACY", "address": "6 THE MARLINS\n\nNORTHWOOD\nHERTFORDSHIRE", "postcode": "HA6 3NP", "latitude": 51.615726, "longitude": -0.414394}
{"name": "NORTHOLT PHARMACY", "address": "GRAND UNION HEALTH CENTRE\nTAYWOOD ROAD\nNORTHOLT\nMIDDLESEX", "postcode": "UB5 6WL", "latitude": 51.531514, "longitude": -0.376261}
{"name": "TESCO INSTORE PHARMACY", "address": "TESCO STORE\nCLODGEY LANE\nTURNPIKE, HELSTON\nCORNWALL", "postcode": "TR13 8PJ", "latitude": 50.103713, "longitude": -5.267155}
{"name": "BOOTS", "address": "449 BRIXTON ROAD\nLONDON", "postcode": "SW9 8HH", "latitude": 51.461845, "longitude": -0.115021}
{"name": "BOOTS", "address": "31-32 THE MALL\nTHE STRATFORD CENTRE\nSTRATFORD\nLONDON", "postcode": "E15 1XD", "latitude": 51.541514, "longitude": -0.000644}
{"name": "FIRST CARE PHARMACY", "address": "UNIT 6\nTHE REACH\nTHAMESMEAD\nLONDON", "postcode": "SE28 0NY", "latitude": 51.498473, "longitude": 0.090299}
{"name": "FITTLEWORTH MEDICAL LIMITED", "address": "GROUND FLOOR\n61 CANAL STREET\nDERBY", "postcode": "DE1 2RJ", "latitude": 52.917412, "longitude": -1.465973}
{"name": "PAYDENS PHARMACY", "address": "THE HEALTHY LIVING CENTRE\nBALMORAL GARDENS\nGILLINGHAM\nKENT", "postcode": "ME7 4PN", "latitude": 51.385637, "longitude": 0.547786}
{"name": "GREEN LANES PHARMACY", "address": "808 GREEN LANES\nWINCHMORE HILL\n\nLONDON", "postcode": "N21 2SA", "latitude": 51.633155, "longitude": -0.09387}
{"name": "GREENLIGHT PHARMACY", "address": "ST ANDREW'S HEALTH CENTRE\n2 HANNAFORD WALK\nBROMLEY BY BOW\nLONDON", "postcode": "E3 3FF", "latitude": 51.523949, "longitude": -0.014302}
{"name": "TESCO INSTORE PHARMACY", "address": "VIMY ROAD\nLINSLADE\nLEIGHTON BUZZARD\nBEDFORDSHIRE", "postcode": "LU7 1ER", "latitude": 51.918716, "longitude": -0.668459}
{"name": "MORRISONS PHARMACY", "address": "15-16 ESTCOURT STREET\nDEVIZES\nWILTSHIRE", "postcode": "SN10 1LA", "latitude": 51.352863, "longitude": -1.989095}
{"name": "BOOTS", "address": "UNIT 1\nEXE BRIDGES RETAIL PARK\nALPHINGTON STREET\nEXETER, DEVON", "postcode": "EX4 1AH", "latitude": 50.717024, "longitude": -3.537855}
{"name": "AVICENNA PHARMACY", "address": "TALBOT MEDICAL CENTRE\n63 KINSON ROAD\nBOURNEMOUTH\nDORSET", "postcode": "BH10 4BX", "latitude": 50.748888, "longitude": -1.908934}
{"name": "BOOTS", "address": "EATON CENTRE\nCHURCH LANE\nEATON\nNORWICH", "postcode": "NR4 6NU", "latitude": 52.6079, "longitude": 1.251195}
{"name": "DAY LEWIS PHARMACY", "address": "9A GRACEFIELD GARDENS\n\n\nLONDON", "postcode": "SW16 2SZ", "latitude": 51.432975, "longitude": -0.127678}
{"name": "ADAMS PHARMACY", "address": "169 MOSSLEY ROAD\n \nASHTON-UNDER-LYNE", "postcode": "OL6 6NE", "latitude": 53.49291, "longitude": -2.078053}
{"name": "BOOTS", "address": "UNIT 6\n115 BUCKINGHAM PALACE RD\n \nLONDON", "postcode": "SW1W 9SJ", "latitude": 51.494538, "longitude": -0.145769}
{"name": "INSTORE PHARMACY", "address": "LOMBARD STREET\n \nSTOURPORT-ON-SEVERN\nWORCESTERSHIRE", "postcode": "DY13 8ND", "latitude": 52.339591, "longitude": -2.280383}
{"name": "BROWNS PHARMACY", "address": "351 WARWICK ROAD\nOLTON\nSOLIHULL\nWEST MIDLANDS", "postcode": "B91 1BQ", "latitude": 52.429209, "longitude": -1.797829}
{"name": "SHELLEY PHARMACY", "address": "SHELLEY SURGERY\n23 SHELLEY ROAD\nWORTHING\nWEST SUSSEX", "postcode": "BN11 4BS", "latitude": 50.811423, "longitude": -0.377041}
{"name": "MEDIBANK PHARMACY", "address": "263 MORLAND ROAD\n\nCROYDON\nSURREY", "postcode": "CR0 6HE", "latitude": 51.384599, "longitude": -0.075786}
{"name": "JACKSON CHEMIST", "address": "88 STREATHAM HILL\nBRIXTON\nLONDON", "postcode": "SW2 4RD", "latitude": 51.441318, "longitude": -0.125291}
{"name": "FELIXSTOWE PHARMACY", "address": "THE GROVE MEDICAL CENTRE\nGROVE ROAD\nFELIXSTOWE\nSUFFOLK", "postcode": "IP11 9GA", "latitude": 51.971789, "longitude": 1.350452}
{"name": "VERWOOD PHARMACY", "address": "BANK COURT\n10 MANOR ROAD\nVERWOOD\nDORSET", "postcode": "BH31 6DW", "latitude": 50.881178, "longitude": -1.879623}
{"name": "ADAMS PHARMACY", "address": "GRND FLR STALYBRIDGE CTR\n2 WATERLOO ROAD\nSTALYBRIDGE\nCHESHIRE", "postcode": "SK15 2AU", "latitude": 53.484668, "longitude": -2.059094}
{"name": "SALUS PHARMACY", "address": "40 LIBERTY BRIDGE ROAD\n\n\nLONDON", "postcode": "E20 1AS", "latitude": 51.547818, "longitude": -0.006369}
{"name": "LORDS PHARMACY", "address": "UNIT 61\nTHE GUINEAS SHOPPING CTR\nNEWMARKET\nSUFFOLK", "postcode": "CB8 8EQ", "latitude": 52.244798, "longitude": 0.405583}
{"name": "WOOLWICH LATE NIGHT PHARMACY", "address": "EQUITABLE HOUSE\n10 WOOLWICH NEW ROAD\nWOOLWICH\nLONDON", "postcode": "SE18 6AB", "latitude": 51.490359, "longitude": 0.068593}
{"name": "TESCO INSTORE PHARMACY", "address": "TESCO SUPERSTORE\nCLIFTON MOOR CENTRE\nYORK", "postcode": "YO30 4XZ", "latitude": 53.992093, "longitude": -1.101739}
{"name": "TESCO INSTORE PHARMACY", "address": "OLD KENT ROAD\n\nLONDON", "postcode": "SE1 5HG", "latitude": 51.488894, "longitude": -0.076252}
{"name": "KETTERING PHARMACY", "address": "UNIT 1 MARINERS WAY\nNORTHFIELD AVENUE\nKETTERING\nNORTHAMPTONSHIRE", "postcode": "NN16 8AR", "latitude": 52.400402, "longitude": -0.734188}
{"name": "TESCO INSTORE PHARMACY", "address": "TESCO SUPERSTORE\nWILLEMS PARK\nWELLINGTON AVENUE\nALDERSHOT, HAMPSHIRE", "postcode": "GU11 1SQ", "latitude": 51.251316, "longitude": -0.77678}
{"name": "BOOTS", "address": "302 REGENT STREET\n\n\nLONDON", "postcode": "W1B 3AS", "latitude": 51.516739, "longitude": -0.142302}
{"name": "WELL", "address": "QUEENS PARK SURGERY\nFARRER STREET\nSTOCKTON ON TEES", "postcode": "TS18 2AW", "latitude": 54.569163, "longitude": -1.31388}
{"name": "BOOTS", "address": "UNIT E, MARSH LANE\nWEST CORNWALL SHOPPING PK\nHAYLE\nCORNWALL", "postcode": "TR27 5LX", "latitude": 50.195572, "longitude": -5.39754}
{"name": "PICKFORDS PHARMACY", "address": "THE SCOTT PRACTICE\nGREENFIELD LANE, BALBY\nDONCASTER\nSOUTH YORKSHIRE", "postcode": "DN4 0TG", "latitude": 53.507078, "longitude": -1.151432}
{"name": "HEATHERLANDS PHARMACY", "address": "396 NEW HEY ROAD\n\nUPTON\nWIRRAL", "postcode": "CH49 9DA", "latitude": 53.381475, "longitude": -3.089543}
{"name": "BOOTS", "address": "UNIT 7, FULHAM BROADWAY\nRETAIL CENTRE,FULHAM ROAD\nLONDON", "postcode": "SW6 1BH", "latitude": 51.480576, "longitude": -0.198484}
{"name": "AUDLEY MILLS PHARMACY", "address": "55-57 EASTWOOD ROAD\n\nRAYLEIGH\nESSEX", "postcode": "SS6 7JE", "latitude": 51.584795, "longitude": 0.606454}
{"name": "DONNINGTON PHARMACY", "address": "DONNINGTON MED PRACTICE\nWREKIN DRIVE,DONNINGTON\nTELFORD\nSHROPSHIRE", "postcode": "TF2 8EA", "latitude": 52.715179, "longitude": -2.437109}
{"name": "BOOTS", "address": "RETFORD PRIMARY CARE CTR\nNORTH RD\nRETFORD\nNOTTINGHAMSHIRE", "postcode": "DN22 7XF", "latitude": 53.325451, "longitude": -0.950634}
{"name": "BOOTS", "address": "UNIT 3\nWEST QUAY RETAIL PARK\nSOUTHAMPTON\nHAMPSHIRE", "postcode": "SO15 1BA", "latitude": 50.903921, "longitude": -1.40992}
{"name": "BOOTS", "address": "UNIT 2,THURMASTON DIST CT\nBARKBY THORPE LANE\nTHURMASTON\nLEICESTERSHIRE", "postcode": "LE4 8GP", "latitude": 52.684061, "longitude": -1.089498}
{"name": "ANCORA HEALTHCARE LIMITED", "address": "291 ASHBY ROAD\n\nSCUNTHORPE\nNORTH LINCOLNSHIRE", "postcode": "DN16 2AB", "latitude": 53.570914, "longitude": -0.655287}
{"name": "EXEL CHEMIST", "address": "56 HIGH STREET\n\nNORMANTON", "postcode": "WF6 2AQ", "latitude": 53.69989, "longitude": -1.418124}
{"name": "GREYFRIARS PHARMACY", "address": "5 GREYFRIARS WAY\n\nGREAT YARMOUTH\nNORFOLK", "postcode": "NR30 2QE", "latitude": 52.605925, "longitude": 1.726022}
{"name": "3Q PHARMACY", "address": "3 QUEEN STREET\n\nWELLINGBOROUGH\nNORTHAMPTONSHIRE", "postcode": "NN8 4RW", "latitude": 52.303509, "longitude": -0.695386}
{"name": "HIGH STREET PHARMACY", "address": "HIGH STREET SURGERY\nHIGH STREET\nLOWESTOFT\nSUFFOLK", "postcode": "NR32 1JE", "latitude": 52.482123, "longitude": 1.756043}
{"name": "MANOR PARK PHARMACY", "address": "MANOR PARK SURGERY\nBELLMOUNT CLOSE\nBRAMLEY, LEEDS\nWEST YORKSHIRE", "postcode": "LS13 2UP", "latitude": 53.814076, "longitude": -1.628914}
{"name": "BOOTS", "address": "200 BISHOPSGATE\n\n\nLONDON", "postcode": "EC2M 4NR", "latitude": 51.517953, "longitude": -0.079727}
{"name": "WHITE CLIFFS PHARMACY", "address": "141 FOLKESTONE ROAD\n\nDOVER\nKENT", "postcode": "CT17 9SG", "latitude": 51.12422, "longitude": 1.301586}
{"name": "BOOTS", "address": "UNIT D\nBLACKWATER RETAIL PARK\nFARNBOROUGH\nHAMPSHIRE", "postcode": "GU14 8BL", "latitude": 51.307311, "longitude": -0.748722}
{"name": "ROSEMARY STREET PHARMACY", "address": "ROSEMARY STREET\n\nMANSFIELD\nNOTTINGHAMSHIRE", "postcode": "NG19 6AB", "latitude": 53.14969, "longitude": -1.205754}
{"name": "BOOTS", "address": "UNIT 1, WILLOW BROOK CTR\nBRADLEY STOKE\nBRISTOL", "postcode": "BS32 8EF", "latitude": 51.535424, "longitude": -2.547884}
{"name": "CHIGWELL PHARMACY", "address": "CHIGWELL MEDICAL CENTRE\n300 FENCEPIECE ROAD\nHAINAULT", "postcode": "IG6 2TA", "latitude": 51.60551, "longitude": 0.083876}
{"name": "BOOTS", "address": "UNIT 2 NTHLINCS SHOP PARK\nDONCASTER ROAD\nSCUNTHORPE", "postcode": "DN15 8TE", "latitude": 53.588998, "longitude": -0.6949}
{"name": "BITTERNE PHARMACY", "address": "62A WEST END ROAD\nBITTERNE\nSOUTHAMPTON\nHAMPSHIRE", "postcode": "SO18 6TG", "latitude": 50.916702, "longitude": -1.359281}
{"name": "BOOTS", "address": "174-180 CLAPHAM HIGH ST\n\n\nLONDON", "postcode": "SW4 7UG", "latitude": 51.462469, "longitude": -0.137194}
{"name": "EARLS COURT CHEMIST", "address": "206 EARLS COURT ROAD\n\n\nLONDON", "postcode": "SW5 9QB", "latitude": 51.492181, "longitude": -0.193532}
{"name": "WEXHAM ROAD PHARMACY", "address": "UNIT 3 UPTON LEA PARADE\nWEXHAM ROAD\nSLOUGH", "postcode": "SL2 5JU", "latitude": 51.517202, "longitude": -0.578822}
{"name": "BOOTS", "address": "UNIT 1\nWOODFIELDS RETAIL PARK\nPEEL WAY, BURY\nLANCASHIRE", "postcode": "BL9 5BY", "latitude": 53.596741, "longitude": -2.296986}
{"name": "REGENT PHARMACY", "address": "10-11 REGENT SQUARE\n\nNORTHAMPTON\nNORTHAMPTONSHIRE", "postcode": "NN1 2NQ", "latitude": 52.242183, "longitude": -0.897926}
{"name": "NEWTON PLACE PHARMACY", "address": "NEWTON PLACE SURGERY\nNEWTON ROAD\nFAVERSHAM\nKENT", "postcode": "ME13 8FH", "latitude": 51.313245, "longitude": 0.891974}
{"name": "BOOTS", "address": "127A KENSINGTON HIGH ST\nLONDON", "postcode": "W8 5SF", "latitude": 51.500876, "longitude": -0.192818}
{"name": "BOOTS", "address": "MILTON KEYNES MEDICAL CTR\n68 BRADWELL\nCOMMON BOULEVARD\nMILTON KEYNES", "postcode": "MK13 8RN", "latitude": 52.041948, "longitude": -0.775059}
{"name": "TESCO INSTORE PHARMACY", "address": "TESCO SUPERSTORE\nHALIFAX ROAD\nBRADFORD", "postcode": "BD6 2DW", "latitude": 53.759314, "longitude": -1.79409}
{"name": "THE PRIORY PHARMACY", "address": "CORNLANDS ROAD\nACOMB\nYORK", "postcode": "YO24 3WX", "latitude": 53.949388, "longitude": -1.129435}
{"name": "POOLE BAY PHARMACY", "address": "WESTBOURNE MEDICAL CENTRE\nMILBURN ROAD,WESTBOURNE\nBOURNEMOUTH\nDORSET", "postcode": "BH4 9HJ", "latitude": 50.723515, "longitude": -1.90343}
{"name": "BOOTS", "address": "2 GREENHILL WAY RETAIL PK\nKINGSTEIGNTON\nNEWTON ABBOT\nDEVON", "postcode": "TQ12 3SB", "latitude": 50.542421, "longitude": -3.596073}
{"name": "ASDA PHARMACY", "address": "BURTON ROAD\nKENDAL\n\nCUMBRIA", "postcode": "LA9 7JA", "latitude": 54.311537, "longitude": -2.735804}
{"name": "BOOTS", "address": "SIXFIELDS RETAIL PARK\nGAMBRELL ROAD\nNORTHAMPTON\nNORTHAMPTONSHIRE", "postcode": "NN5 5DG", "latitude": 52.239944, "longitude": -0.934155}
{"name": "BOOTS", "address": "2/4 WEST PARADE\nPLUME AVENUE\nCOLCHESTER\nESSEX", "postcode": "CO3 4PG", "latitude": 51.876717, "longitude": 0.868505}
{"name": "TESCO INSTORE PHARMACY", "address": "TESCO STORES\nGAINSBOROUGH ROAD\nLEYTONSTONE", "postcode": "E11 1HT", "latitude": 51.570179, "longitude": 0.012172}
{"name": "BALSALL COMMON PHARMACY", "address": "192-196-198 STATION ROAD\nBALSALL COMMON\nCOVENTRY", "postcode": "CV7 7FD", "latitude": 52.39166, "longitude": -1.648816}
{"name": "CAMBRIDGE ROAD PHARMACY", "address": "137 CAMBRIDGE ROAD\n \nCHURCHTOWN\nMERSEYSIDE", "postcode": "PR9 7LT", "latitude": 53.661789, "longitude": -2.965053}
{"name": "TESCO INSTORE PHARMACY", "address": "361 ROUNDHAY ROAD\n\nLEEDS", "postcode": "LS8 4BU", "latitude": 53.821895, "longitude": -1.511366}
{"name": "BOOTS", "address": "22A HIGH STREET\n \nCOBHAM\nSURREY", "postcode": "KT11 3EB", "latitude": 51.327895, "longitude": -0.410697}
{"name": "AVENUE PHARMACY", "address": "53 LOWER DUNDAS STREET\nMONKWEARMOUTH\nSUNDERLAND\nTYNE & WEAR", "postcode": "SR6 0BD", "latitude": 54.914291, "longitude": -1.37761}
{"name": "NORTH BRINK PHARMACY", "address": "7 NORTH BRINK\n \nWISBECH\nCAMBRIDGESHIRE", "postcode": "PE13 1JU", "latitude": 52.665181, "longitude": 0.156383}
{"name": "SWAN PHARMACY", "address": "SWAN SURGERY\nSWAN STREET\nPETERSFIELD\nHAMPSHIRE", "postcode": "GU32 3AB", "latitude": 51.004355, "longitude": -0.942602}
{"name": "BOOTS", "address": "15 JUBILEE PLACE\n45 BANK STREET\nCANARY WHARF", "postcode": "E14 5NY", "latitude": 51.50307, "longitude": -0.018583}
{"name": "BRIAN H DONLON PHARMACY", "address": "WOODSIDE HEALTHCARE CENTR\nWOODSIDE ROAD\nHAYDOCK\nMERSEYSIDE", "postcode": "WA11 0NA", "latitude": 53.468334, "longitude": -2.656554}
{"name": "BOOTS", "address": "OXFORD RETAIL PARK\nAMBASSADOR AVENUE, COWLEY\nOXFORD\nOXFORDSHIRE", "postcode": "OX4 6XJ", "latitude": 51.72834, "longitude": -1.202112}
{"name": "TESCO INSTORE PHARMACY", "address": "BELLEVUE WAY\n\nHARTLEPOOL\nCLEVELAND", "postcode": "TS25 1UP", "latitude": 54.676994, "longitude": -1.210003}
{"name": "BEEHIVE PHARMACY", "address": "BEEHIVE TRADING PARK\nHASLINGDEN ROAD\nBLACKBURN\nLANCASHIRE", "postcode": "BB1 2EE", "latitude": 53.730697, "longitude": -2.452581}
{"name": "COUNTY PHARMACY", "address": "13-15 CHURCH ROAD\n\nREDDITCH\nWORCESTERSHIRE", "postcode": "B97 4AB", "latitude": 52.308387, "longitude": -1.942364}
{"name": "MARKET HARBOROUGH PHARMACY", "address": "MARKET HARBOROUGH MED CTR\n67 COVENTRY ROAD\nMARKET HARBOROUGH\nLEICESTERSHIRE", "postcode": "LE16 9BX", "latitude": 52.477084, "longitude": -0.924843}
{"name": "WHITEGATE PHARMACY", "address": "WHITEGATE HEALTH CENTRE\n150-158 WHITEGATE DRIVE\nBLACKPOOL\nLANCASHIRE", "postcode": "FY3 9ES", "latitude": 53.812843, "longitude": -3.034524}
{"name": "BOOTS", "address": "UNIT 9\nTOLLGATE WEST\nSTANWAY,COLCHESTER\nESSEX", "postcode": "CO3 8RG", "latitude": 51.883769, "longitude": 0.833073}
{"name": "BOOTS", "address": "UNIT D, LONGWATER RET.PK\nALEX MOORHOUSE WAY\nNEW COSTESSEY\nNORFOLK", "postcode": "NR5 0JT", "latitude": 52.653838, "longitude": 1.180691}
{"name": "STOCKTON HEATH PHARMACY", "address": "STOCKTON HEATH MED CENTRE\nTHE FORGE, LONDON ROAD\nWARRINGTON", "postcode": "WA4 6HJ", "latitude": 53.37195, "longitude": -2.582161}
{"name": "PEARTREE PHARMACY", "address": "PEARTREE LANE SURGERY\n110 PEARTREE LANE\nWELWYN GARDEN CITY\nHERTFORDSHIRE", "postcode": "AL7 3UJ", "latitude": 51.797042, "longitude": -0.197979}
{"name": "DERIX HEALTHCARE PHARMACY", "address": "1065 LONDON ROAD\n\nLEIGH ON SEA\nESSEX", "postcode": "SS9 3JP", "latitude": 51.547693, "longitude": 0.6633}
{"name": "ASDA PHARMACY", "address": "ASDA SUPERSTORE\nSEAVIEW ROAD\nLISCARD, WALLASEY\nMERSEYSIDE", "postcode": "CH45 4NZ", "latitude": 53.425396, "longitude": -3.049172}
{"name": "ASDA PHARMACY", "address": "ASDA SUPERSTORE\nSOHO STREET\nNEWTOWN\nWIGAN, LANCASHIRE", "postcode": "WN5 0XA", "latitude": 53.543233, "longitude": -2.650878}
{"name": "ASDA PHARMACY", "address": "ASDA SUPERSTORE\nEASTWAY, FULWOOD\nPRESTON\nLANCASHIRE", "postcode": "PR2 9NP", "latitude": 53.791139, "longitude": -2.684888}
{"name": "ASDA PHARMACY", "address": "LEYTON MILLS CENTRE\n1 MARSHALL ROAD\nLEYTON\nLONDON", "postcode": "E10 5NH", "latitude": 51.55551, "longitude": -0.008139}
{"name": "ASDA PHARMACY", "address": "PARK ROYAL INDUSTRIAL EST\n2-20 WESTERN ROAD\nEALING\nLONDON", "postcode": "NW10 7LW", "latitude": 51.528721, "longitude": -0.270153}
{"name": "FISHERS ENMORE PHARMACY", "address": "1 ENMORE ROAD\nSOUTH NORWOOD\nLONDON", "postcode": "SE25 5NT", "latitude": 51.393136, "longitude": -0.067251}
{"name": "OXFORD ROAD PHARMACY", "address": "270-274 OXFORD ROAD\n\nREADING\nBERKSHIRE", "postcode": "RG30 1AD", "latitude": 51.456577, "longitude": -0.994164}
{"name": "ROBIN HOOD PHARMACY", "address": "1518 STRATFORD ROAD\nHALL GREEN\nBIRMINGHAM", "postcode": "B28 9ET", "latitude": 52.421678, "longitude": -1.83461}
{"name": "TESCO INSTORE PHARMACY", "address": "IN-STORE PHARMACY\nTOWN LANE\nKEW\nSOUTHPORT", "postcode": "PR8 5JH", "latitude": 53.63322, "longitude": -2.972053}
{"name": "RADCLIFFE PHARMACY", "address": "47 CHURCH STREET WEST\n \nRADCLIFFE\nMANCHESTER", "postcode": "M26 2SP", "latitude": 53.560143, "longitude": -2.323706}
{"name": "BATLEY PHARMACY", "address": "157 UPPER COMMERCIAL ST\n \nBATLEY\nWEST YORKSHIRE", "postcode": "WF17 5DH", "latitude": 53.714746, "longitude": -1.636637}
{"name": "NELSON PHARMACY", "address": "41 EVERY STREET\n\nNELSON\nLANCASHIRE", "postcode": "BB9 7LU", "latitude": 53.838507, "longitude": -2.215707}
{"name": "COULBY NEWHAM PHARMACY", "address": "CROPTON WAY\nCOULBY NEWHAM\nMIDDLESBROUGH\nTEESSIDE", "postcode": "TS8 0TL", "latitude": 54.524805, "longitude": -1.213762}
{"name": "BOOTS", "address": "44-46 REGENT STREET\nPICCADILLY CIRCUS\n\nLONDON", "postcode": "W1B 5RA", "latitude": 51.510486, "longitude": -0.134702}
{"name": "MADEENAH PHARMACY", "address": "373 COVENTRY ROAD\nSMALL HEATH\nBIRMINGHAM", "postcode": "B10 0SW", "latitude": 52.47155, "longitude": -1.863652}
{"name": "BOOTS", "address": "EVESHAM RETAIL PARK\nWORCESTER ROAD\nEVESHAM\nWORCESTERSHIRE", "postcode": "WR11 4QR", "latitude": 52.100453, "longitude": -1.940499}
{"name": "PHARMACENTRE", "address": "149 EDGWARE ROAD\n \n \nLONDON", "postcode": "W2 2HU", "latitude": 51.517311, "longitude": -0.166666}
{"name": "ADAMS PHARMACY", "address": "50-51 NECHELLS PARK ROAD\nNECHELLS\nBIRMINGHAM", "postcode": "B7 5PR", "latitude": 52.498198, "longitude": -1.867969}
{"name": "BOOTS", "address": "UNIT 12\nGRAND JUNCTION RETAIL PK\nCREWE", "postcode": "CW1 2RP", "latitude": 53.096924, "longitude": -2.434596}
{"name": "CAMEOLORD PHARMACY", "address": "16 OXFORD STREET\n\nMANCHESTER", "postcode": "M1 5AE", "latitude": 53.476713, "longitude": -2.243319}
{"name": "ORCHARD VILLAGE PHARMACY", "address": "MICK FURY HOUSE\nLOWEN HOUSE\nRAINHAM\nLONDON", "postcode": "RM13 8HT", "latitude": 51.528429, "longitude": 0.169958}
{"name": "BOOTS", "address": "2 ERME TERRACE\nSTATION ROAD\nIVYBRIDGE\nDEVON", "postcode": "PL21 0AL", "latitude": 50.391561, "longitude": -3.920408}
{"name": "WELL", "address": "HEALTH CENTRE\nSAWMILLS LANE\nMEADOWFIELD\nCOUNTY DURHAM", "postcode": "DH7 8NH", "latitude": 54.748296, "longitude": -1.628911}
{"name": "BOWNESS PHARMACY", "address": "210 CLEGGS LANE\n \nLITTLE HULTON\nMANCHESTER", "postcode": "M38 9RQ", "latitude": 53.53604, "longitude": -2.41568}
{"name": "WELL", "address": "MOUNT ROAD\nKIDSGROVE\nSTOKE-ON-TRENT", "postcode": "ST7 4AY", "latitude": 53.087366, "longitude": -2.234085}
{"name": "ALSAGER PHARMACY", "address": "25 LAWTON ROAD\n\nALSAGER\nCHESHIRE", "postcode": "ST7 2AA", "latitude": 53.096767, "longitude": -2.302698}
{"name": "BOOTS", "address": "54-56 HIGH STREET\n\nSKIPTON\nNORTH YORKSHIRE", "postcode": "BD23 1JP", "latitude": 53.961595, "longitude": -2.01716}
{"name": "THE CHURCH STREET PHARMACY", "address": "DAVID CORBET HOUSE\nCALLOWS LANE\nKIDDERMINSTER\nWORCESTERSHIRE", "postcode": "DY10 2JG", "latitude": 52.388623, "longitude": -2.250714}
{"name": "CRABTREE PHARMACY", "address": "BIDFORD HEALTH CENTRE\nSTRATFORD ROAD\nBIDFORD-ON-AVON\nWEST MIDLANDS", "postcode": "B50 4LX", "latitude": 52.171789, "longitude": -1.834944}
{"name": "JADE (EASTWARE) PHARMACY", "address": "BURGAGE LANE\n\nWARE\nHERTFORDSHIRE", "postcode": "SG12 9FT", "latitude": 51.811099, "longitude": -0.033868}
{"name": "JADE (ST ANDREWS) PHARMACY", "address": "44A ST ANDREWS STREET\n\nHERTFORD\nHERTFORDSHIRE", "postcode": "SG14 1JA", "latitude": 51.796729, "longitude": -0.082307}
{"name": "BLACKBIRD PHARMACY", "address": "8 BLACKBIRD ROAD\n\nLEICESTER", "postcode": "LE4 0FS", "latitude": 52.644248, "longitude": -1.149325}
{"name": "ENGLAND PHARMACY", "address": "280 GIDLOW LANE\n\nWIGAN\nLANCASHIRE", "postcode": "WN6 7PG", "latitude": 53.555718, "longitude": -2.644186}
{"name": "HANDSWORTH WOOD PHARMACY", "address": "110-114 CHURCH LANE\nHANDSWORTH\nBIRMINGHAM", "postcode": "B20 2ES", "latitude": 52.513033, "longitude": -1.928196}
{"name": "WELL", "address": "22A MAIN ROAD\nRADCLIFFE-ON-TRENT\nNOTTINGHAM", "postcode": "NG12 2FH", "latitude": 52.947191, "longitude": -1.038212}
{"name": "STRAWBERRY FIELDS PHARMACY", "address": "STOKEWOOD CLOSE\nFAIR OAK ROAD\nEASTLEIGH\nHAMPSHIRE", "postcode": "SO50 8AU", "latitude": 50.964876, "longitude": -1.310304}
{"name": "BOOTS", "address": "18 GREAT CHARLOTTE ST\nCLAYTON SQUARE\nLIVERPOOL", "postcode": "L1 1QR", "latitude": 53.405447, "longitude": -2.980827}
{"name": "RANGE PHARMACY", "address": "121 WITHINGTON ROAD\nWHALLEY RANGE\nMANCHESTER", "postcode": "M16 8EB", "latitude": 53.453063, "longitude": -2.25713}
{"name": "KNIGHTONS PHARMACY", "address": "36 NUXLEY ROAD\n\nBELVEDERE\nKENT", "postcode": "DA17 5JG", "latitude": 51.482365, "longitude": 0.145662}
{"name": "MILFORD PHARMACY", "address": "WAR MEMORIAL HOSPITAL\nSEA ROAD\nMILFORD ON SEA\nHAMPSHIRE", "postcode": "SO41 0PG", "latitude": 50.722429, "longitude": -1.589518}
{"name": "RUFFORD PHARMACY", "address": "124 LIVERPOOL ROAD\nRUFFORD\nORMSKIRK", "postcode": "L40 1SB", "latitude": 53.633652, "longitude": -2.815932}
{"name": "MOORSIDE PHARMACY", "address": "CONSETT PARK TERRACE\nMOORSIDE\nCONSETT\nCO.DURHAM", "postcode": "DH8 8ET", "latitude": 54.839217, "longitude": -1.863497}
{"name": "LLOYDSPHARMACY", "address": "ROCKWOOD HILL ROAD\nGREENSIDE\nRYTON\nTYNE & WEAR", "postcode": "NE40 4AX", "latitude": 54.953096, "longitude": -1.785667}
{"name": "AINSWORTH SURGICAL SUPPLIES", "address": "UNIT 5\nSHERWOOD BUSINESS PARK\nQUEENSWAY, ROCHDALE\nLANCASHIRE", "postcode": "OL11 2NU", "latitude": 53.596278, "longitude": -2.171015}
{"name": "JAI CHEMIST", "address": "65 HIGH STREET\n\nKING'S LYNN\nNORFOLK", "postcode": "PE30 1AY", "latitude": 52.755519, "longitude": 0.394968}
{"name": "K & A PHARMACY", "address": "292 OLD DURHAM ROAD\n\nGATESHEAD\nTYNE & WEAR", "postcode": "NE8 4BQ", "latitude": 54.950545, "longitude": -1.59531}
{"name": "MISTRYS PHARMACY", "address": "14 HIGH STREET\n\nMARKET HARBOROUGH\nLEICESTERSHIRE", "postcode": "LE16 7NJ", "latitude": 52.478607, "longitude": -0.922243}
{"name": "SUPERDRUG PHARMACY", "address": "39-41 QUEENSWAY\n\nSTEVENAGE\nHERTFORDSHIRE", "postcode": "SG1 1DN", "latitude": 51.901946, "longitude": -0.20129}
{"name": "BOOTS", "address": "31-39 CHAPEL STREET\nSOUTHPORT\nMERSEYSIDE", "postcode": "PR8 1AH", "latitude": 53.647329, "longitude": -3.004269}
{"name": "SUPERDRUG PHARMACY", "address": "9-11 WOOD STREET\nGROSVENOR CENTRE\nNORTHAMPTON", "postcode": "NN1 2ED", "latitude": 52.238753, "longitude": -0.893882}
{"name": "VANTAGE VALE CHEMIST", "address": "66 VALE ROAD\nCOLWICK\nNOTTINGHAM\nNOTTINGHAMSHIRE", "postcode": "NG4 2EB", "latitude": 52.955463, "longitude": -1.093403}
{"name": "BOOTS", "address": "12-14 CASTLE QUAY\nBANBURY\nOXFORDSHIRE", "postcode": "OX16 5UH", "latitude": 52.062791, "longitude": -1.334761}
{"name": "PENHILL PHARMACY", "address": "257A PENHILL DRIVE\n \nSWINDON\nWILTSHIRE", "postcode": "SN2 5HN", "latitude": 51.595601, "longitude": -1.780735}
{"name": "BOOTS", "address": "55 HIGH STREET\n \nLEIGHTON BUZZARD\nBEDFORDSHIRE", "postcode": "LU7 1DN", "latitude": 51.916251, "longitude": -0.663589}
{"name": "SUPERDRUG PHARMACY", "address": "UNIT 66-78 LOWER PRECINCT\nSHOPPING CENTRE\nCOVENTRY", "postcode": "CV1 1DN", "latitude": 52.407638, "longitude": -1.514164}
{"name": "BOOTS", "address": "11-13 MARKET PLACE\n \nLOUGHBOROUGH\nLEICESTERSHIRE", "postcode": "LE11 3EQ", "latitude": 52.771843, "longitude": -1.206791}
{"name": "BOOTS", "address": "ST MARYS PLACE\nST MARYS ROAD\nMARKET HARBOROUGH\nLEICESTERSHIRE", "postcode": "LE16 7DR", "latitude": 52.477406, "longitude": -0.918783}
{"name": "BOOTS", "address": "82 HIGH STREET\nNEWMARKET\nSUFFOLK", "postcode": "CB8 8JX", "latitude": 52.244218, "longitude": 0.405754}
{"name": "BOOTS", "address": "MARKET PLACE\n\nSAFFRON WALDEN\nESSEX", "postcode": "CB10 1HR", "latitude": 52.024016, "longitude": 0.241589}
{"name": "PHARMACY EXPRESS", "address": "105 LINTHORPE ROAD\n\nMIDDLESBROUGH\nCLEVELAND", "postcode": "TS1 5DD", "latitude": 54.574225, "longitude": -1.237655}
{"name": "BOOTS", "address": "34-40 CHEAPSIDE\nBARNSLEY\nSOUTH YORKSHIRE", "postcode": "S70 1RT", "latitude": 53.55163, "longitude": -1.479386}
{"name": "BOOTS", "address": "UNIT A\n58 PARK STREET\nWALSALL", "postcode": "WS1 1NG", "latitude": 52.585062, "longitude": -1.983234}
{"name": "WELL", "address": "1 THE SQUARE\nHYDE\nCHESHIRE", "postcode": "SK14 2QR", "latitude": 53.451363, "longitude": -2.078668}
{"name": "BOOTS", "address": "22A BERTIE ROAD\n \nKENILWORTH\nWARWICKSHIRE", "postcode": "CV8 1JP", "latitude": 52.341508, "longitude": -1.575821}
{"name": "BOOTS", "address": "33 HIGH STREET\nST.NEOTS\nHUNTINGDON\nCAMBRIDGESHIRE", "postcode": "PE19 1BW", "latitude": 52.228463, "longitude": -0.267795}
{"name": "BOOTS", "address": "20-22 FLETCHER MALL\nBEAUMONT LEYS\nLEICESTER", "postcode": "LE4 1DG", "latitude": 52.66593, "longitude": -1.166892}
{"name": "BOOTS", "address": "UNIT 2\nROYAL SHOPPING CENTRE\nHIGH STREET\nSOUTHEND-ON-SEA, ESSEX", "postcode": "SS1 1DE", "latitude": 51.534686, "longitude": 0.715335}
{"name": "WELL", "address": "40 FRONT STREET\nLANGLEY PARK\nDURHAM", "postcode": "DH7 9SA", "latitude": 54.799647, "longitude": -1.670253}
{"name": "BOOTS", "address": "736-740 WILMSLOW ROAD\nDIDSBURY\nMANCHESTER", "postcode": "M20 2DW", "latitude": 53.417567, "longitude": -2.231744}
{"name": "BOOTS", "address": "7 HIGH STREET\n\nHITCHIN\nHERTFORDSHIRE", "postcode": "SG5 1BH", "latitude": 51.948058, "longitude": -0.278952}
{"name": "PARKHILL PHARMACY", "address": "192 DUKE STREET\nPARKHILL\nSHEFFIELD\nSOUTH YORKSHIRE", "postcode": "S2 5QQ", "latitude": 53.377769, "longitude": -1.454225}
{"name": "BOOTS", "address": "142 HIGH STREET\n\nBARNET\nHERTFORDSHIRE", "postcode": "EN5 5XP", "latitude": 51.655804, "longitude": -0.201379}
{"name": "BOOTS", "address": "INTU SHOPPING CENTRE\n\nDERBY", "postcode": "DE1 2AH", "latitude": 52.920062, "longitude": -1.47354}
{"name": "SUPERDRUG PHARMACY", "address": "11-13 PARKER STREET\n\nLIVERPOOL", "postcode": "L1 1DJ", "latitude": 53.405399, "longitude": -2.982375}
{"name": "KAMSONS PHARMACY", "address": "7C BOLTON ROAD\nEASTBOURNE\nEAST SUSSEX", "postcode": "BN21 3JU", "latitude": 50.767801, "longitude": 0.285468}
{"name": "BOOTS", "address": "43 CONEY STREET\n\nYORK", "postcode": "YO1 9QR", "latitude": 53.95802, "longitude": -1.082787}
{"name": "BOOTS", "address": "85-87 HIGH STREET\n\nBANSTEAD\nSURREY", "postcode": "SM7 2NL", "latitude": 51.322997, "longitude": -0.200808}
{"name": "BOOTS", "address": "30-34 WILMOT SQUARE\nPENTAGON CENTRE\nCHATHAM\nKENT", "postcode": "ME4 4BB", "latitude": 51.382855, "longitude": 0.526317}
{"name": "SALTBURN PHARMACY", "address": "GROUND FLOOR\n6 STATION STREET\nSALTBURN-BY-THE-SEA\nCLEVELAND", "postcode": "TS12 1AE", "latitude": 54.582842, "longitude": -0.974009}
{"name": "BOOTS", "address": "UNITS 38/39\nHIGHCROSS\nLEICESTER", "postcode": "LE1 4FQ", "latitude": 52.636244, "longitude": -1.135287}
{"name": "WILDWOOD PHARMACY", "address": "THE CO-OPERATIVE CENTRE\nCANNOCK ROAD\nWILDWOOD\nSTAFFORD", "postcode": "ST17 4RA", "latitude": 52.784701, "longitude": -2.082316}
{"name": "BOOTS", "address": "5-6 LION WALK\n\nCOLCHESTER\nESSEX", "postcode": "CO1 1LX", "latitude": 51.888302, "longitude": 0.900594}
{"name": "SUPERDRUG PHARMACY", "address": "39 SHEEP STREET\nBICESTER\nOXFORDSHIRE", "postcode": "OX26 6JJ", "latitude": 51.898529, "longitude": -1.151857}
{"name": "BOOTS", "address": "QUEENSGATE CENTRE\n\nPETERBOROUGH\nCAMBRIDGESHIRE", "postcode": "PE1 1NW", "latitude": 52.573639, "longitude": -0.242866}
{"name": "SUPERDRUG PHARMACY", "address": "34-35 CASTLE QUAY\nCHERWELL WALK\nBANBURY\nOXFORDSHIRE", "postcode": "OX16 5UN", "latitude": 52.063223, "longitude": -1.334725}
{"name": "BOOTS", "address": "48-49 THE BOROUGH\nFARNHAM\nSURREY", "postcode": "GU9 7NW", "latitude": 51.214713, "longitude": -0.799137}
{"name": "BOOTS", "address": "3-5 BEASTFAIR\nPONTEFRACT\nWEST YORKSHIRE", "postcode": "WF8 1AL", "latitude": 53.691206, "longitude": -1.312738}
{"name": "BOOTS", "address": "26-28 CAMBRIDGE STREET\n\nHARROGATE", "postcode": "HG1 1RX", "latitude": 53.993336, "longitude": -1.539665}
{"name": "BOOTS", "address": "40-46 LONDON ROAD\n\nEAST GRINSTEAD\nWEST SUSSEX", "postcode": "RH19 1AB", "latitude": 51.125512, "longitude": -0.009144}
{"name": "BOOTS", "address": "47-55 FOREGATE STREET\nCHESTER", "postcode": "CH1 1NA", "latitude": 53.191365, "longitude": -2.886609}
{"name": "PEAK PHARMACY", "address": "MEDICAL CENTRE\nMAER LANE\nMARKET DRAYTON\nSHROPSHIRE", "postcode": "TF9 3AL", "latitude": 52.908735, "longitude": -2.485925}
{"name": "YARMOUTH PHARMACY", "address": "4 QUAY STREET\n \nYARMOUTH\nISLE OF WIGHT", "postcode": "PO41 0PB", "latitude": 50.70618, "longitude": -1.499988}
{"name": "SUPERDRUG PHARMACY", "address": "34 MILL LANE ARCADE\nTOUCHWOOD COURT\nSOLIHULL\nWEST MIDLANDS", "postcode": "B91 3GS", "latitude": 52.412327, "longitude": -1.778176}
{"name": "BOOTS", "address": "69-70 HIGH STREET\n\nBARNSTAPLE\nDEVON", "postcode": "EX31 1HX", "latitude": 51.080845, "longitude": -4.060724}
{"name": "WYCHBURY PHARMACY", "address": "WYCHBURY MEDICAL CENTRE\n121 OAKFIELD ROAD\nWOLLESCOTE, STOURBRIDGE\nWEST MIDLANDS", "postcode": "DY9 9DS", "latitude": 52.441573, "longitude": -2.110976}
{"name": "BOOTS", "address": "29-30 MANOR WALKS\n\nCRAMLINGTON\nNORTHUMBERLAND", "postcode": "NE23 6QE", "latitude": 55.08549, "longitude": -1.589516}
{"name": "BOOTS", "address": "15-19 HIGH STREET\n\nWALTON-ON-THAMES\nSURREY", "postcode": "KT12 1DG", "latitude": 51.385573, "longitude": -0.418719}
{"name": "BOOTS", "address": "196-199 HIGH STREET\n\nLINCOLN\nLINCOLNSHIRE", "postcode": "LN5 7AL", "latitude": 53.22746, "longitude": -0.541298}
{"name": "ASCENT PHARMACY - RUSSELL DRIVE", "address": "158 RUSSELL DRIVE\nWOLLATON\nNOTTINGHAM", "postcode": "NG8 2BE", "latitude": 52.955511, "longitude": -1.220509}
{"name": "LO'S PHARMACY", "address": "OUTWOOD PARK MEDICAL CTRE\nPOTOVENS LANE, OUTWOOD\nWAKEFIELD\nWEST YORKSHIRE", "postcode": "WF1 2PE", "latitude": 53.710943, "longitude": -1.512284}
{"name": "WILBRAHAM PHARMACY", "address": "521 WILBRAHAM ROAD\nCHORLTON-CUM-HARDY\nMANCHESTER", "postcode": "M21 0UF", "latitude": 53.442318, "longitude": -2.271518}
{"name": "MIDWAY PHARMACY", "address": "CLUNTERGATE\nHORBURY\nWAKEFIELD\nWEST YORKSHIRE", "postcode": "WF4 5AF", "latitude": 53.659487, "longitude": -1.551964}
{"name": "LIONWOOD PHARMACY", "address": "30B WELLESLEY AVE NORTH\n\nNORWICH\nNORFOLK", "postcode": "NR1 4NT", "latitude": 52.633751, "longitude": 1.319697}
{"name": "ASHBOURNE PHARMACY", "address": "ASHBOURNE HEALTH CENTRE\nCLIFTON ROAD\nASHBOURNE\nDERBYSHIRE", "postcode": "DE6 1DR", "latitude": 53.012862, "longitude": -1.737589}
{"name": "SOUTHAM PHARMACY", "address": "4 MARKET HILL\nSOUTHAM\nNR LEAMINGTON SPA\nWARWICKSHIRE", "postcode": "CV47 0HE", "latitude": 52.252366, "longitude": -1.388153}
{"name": "WELL", "address": "THE ROUNDHOUSE MED CTR\nWAKEFIELD ROAD\nBARNSLEY\nSOUTH YORKSHIRE", "postcode": "S71 1TH", "latitude": 53.578219, "longitude": -1.479679}
{"name": "QUESTMOOR PHARMACY", "address": "96 HIGH STREET\n\nPOTTERS BAR\nHERTFORDSHIRE", "postcode": "EN6 5AT", "latitude": 51.695468, "longitude": -0.177114}
{"name": "ALLIED PHARMACY FLEETWOOD ROAD NORTH", "address": "108 FLEETWOOD ROAD NORTH\n\nTHORNTON-CLEVELEYS", "postcode": "FY5 4AF", "latitude": 53.875835, "longitude": -3.012582}
{"name": "WINDMILL - PHARMACY PLUS HEALTH", "address": "WINDMILL HEALTH CENTRE\n83B WHINMOOR WAY\nLEEDS\nWEST YORKSHIRE", "postcode": "LS14 5BD", "latitude": 53.822446, "longitude": -1.445614}
{"name": "HINCKLEY PHARMACY", "address": "STATION VIEW HEALTH CTRE\nSOUTHFIELD ROAD\nHINCKLEY\nLEICESTERSHIRE", "postcode": "LE10 1UA", "latitude": 52.537249, "longitude": -1.364332}
{"name": "UNION SQUARE - PHARMACY PLUS HEALTH", "address": "UNION SQUARE\n\nWAKEFIELD\nWEST YORKSHIRE", "postcode": "WF1 1TT", "latitude": 53.680583, "longitude": -1.493682}
{"name": "DAVEY'S PHARMACY", "address": "43-45 MANOR FARM ROAD\nHUYTON\nLIVERPOOL\nMERSEYSIDE", "postcode": "L36 0UB", "latitude": 53.404553, "longitude": -2.831049}
{"name": "WELL", "address": "ASHBY TURN PRIM CARE CTR\nTHE LINK, ASHBY HIGH ST\nSCUNTHOPRE\nNORTH LINCOLNSHIRE", "postcode": "DN16 2UT", "latitude": 53.565988, "longitude": -0.654178}
{"name": "PEAK PHARMACY", "address": "BEWDLEY MEDICAL CENTRE\nDOG LANE\nBEWDLEY\nWORCESTERSHIRE", "postcode": "DY12 2EF", "latitude": 52.376588, "longitude": -2.316765}
{"name": "BARTON HILL PHARMACY", "address": "THE BARTON SURGERY\nBARTON TERRACE\nDAWLISH\nDEVON", "postcode": "EX7 9QH", "latitude": 50.579848, "longitude": -3.473818}
{"name": "WHITWICK ROAD PHARMACY", "address": "WHITWICK SURGERY SITE\nWHITWICK ROAD\nCOALVILLE\nLEICESTERSHIRE", "postcode": "LE67 3FA", "latitude": 52.726986, "longitude": -1.367146}
{"name": "PRESTWICH PHARMACY", "address": "40 LONGFIELD CENTRE\n\nPRESTWICH\nMANCHESTER", "postcode": "M25 1AY", "latitude": 53.532918, "longitude": -2.284226}
{"name": "WELL", "address": "44 HORSEDGE STREET\n \nOLDHAM", "postcode": "OL1 3SH", "latitude": 53.543966, "longitude": -2.107586}
{"name": "STREET LANE - PHARMACY PLUS HEALTH", "address": "12 DEVONSHIRE AVENUE\n \nLEEDS", "postcode": "LS8 1AY", "latitude": 53.843035, "longitude": -1.513522}
{"name": "PARKLANDS CHEMISTS", "address": "14 MERTON WAY\nPONTELAND\nNEWCASTLE UPON TYNE", "postcode": "NE20 9PX", "latitude": 55.050185, "longitude": -1.744549}
{"name": "CORE PHARMACY", "address": "HORSMAN'S PLACE SURGERY\nINSTONE ROAD\nDARTFORD\nKENT", "postcode": "DA1 2JP", "latitude": 51.442468, "longitude": 0.214952}
{"name": "SOWERBY BRIDGE - PHARMACY PLUS HEALTH", "address": "13-15 RYBURN BUILDINGS\nSOWERBY BRIDGE\nHALIFAX\nWEST YORKSHIRE", "postcode": "HX6 3AH", "latitude": 53.707289, "longitude": -1.912538}
{"name": "CHELMSFORD ROAD PHARMACY", "address": "47 CHELMSFORD ROAD\n\nBRADFORD\nWEST YORKSHIRE", "postcode": "BD3 8QN", "latitude": 53.79764, "longitude": -1.723383}
{"name": "WELL", "address": "12 HARROW ROAD\nWOLLATON PARK\nNOTTINGHAM", "postcode": "NG8 1FG", "latitude": 52.953471, "longitude": -1.195033}
{"name": "PRIMARY CARE PHARMACY", "address": "30 HOSPITAL STREET\n\nTAMWORTH\nSTAFFORDSHIRE", "postcode": "B79 7EB", "latitude": 52.636706, "longitude": -1.69569}
{"name": "VANTAGE PHARMACY", "address": "57 ST PETER'S COURT\nHIGH STREET\nCHALFONT ST PETER\nBUCKINGHAMSHIRE", "postcode": "SL9 9QQ", "latitude": 51.607089, "longitude": -0.555967}
{"name": "BOOTS", "address": "UNITS 8-11 HAYS GALLERIA\nCOUNTER STREET\nNORTH SOUTHWARK\nLONDON", "postcode": "SE1 2HD", "latitude": 51.505885, "longitude": -0.083494}
{"name": "JHOOTS PHARMACY", "address": "446 KINSON ROAD\nKINSON\nBOURNEMOUTH", "postcode": "BH10 5EY", "latitude": 50.767434, "longitude": -1.901425}
{"name": "ALLIED PHARMACY SCOTTER ROAD", "address": "ASDA STORES LTD\nBURRINGHAM ROAD\nSCUNTHORPE\nLINCOLNSHIRE", "postcode": "DN17 2XF", "latitude": 53.565422, "longitude": -0.684407}
{"name": "MANOR PHARMACY", "address": "BOSTON HOUSE\nWIGAN HEALTH CENTRE\nFROG LANE\nWIGAN", "postcode": "WN6 7LB", "latitude": 53.549467, "longitude": -2.644891}
{"name": "WOOLPIT MEDICAL SERVICES LTD", "address": "WOOLPIT HEALTH CENTRE\nHEATH ROAD\nWOOLPIT\nSUFFOLK", "postcode": "IP30 9QU", "latitude": 52.223544, "longitude": 0.892752}
{"name": "BEDFORD PARK PHARMACY", "address": "5 BEDFORD PARK CORNER\n\nCHISWICK\nLONDON", "postcode": "W4 1LS", "latitude": 51.495486, "longitude": -0.255046}
{"name": "DERWENT VALLEY PHARMACY", "address": "11-12 STATION ROAD\n\nCONSETT\nCO.DURHAM", "postcode": "DH8 5RL", "latitude": 54.851522, "longitude": -1.829892}
{"name": "BRADLEY CHEMIST", "address": "83 HALL GREEN STREET\nBRADLEY\nBILSTON\nWEST MIDLANDS", "postcode": "WV14 8TH", "latitude": 52.552863, "longitude": -2.072809}
{"name": "BOOTS", "address": "16 WILLOWDALE CENTRE\nWICKFORD\nESSEX", "postcode": "SS12 0RA", "latitude": 51.613518, "longitude": 0.520113}
{"name": "PHARMACY LINK", "address": "6-7 NEW PARADE\nEAST WITTERING\n \nWEST SUSSEX", "postcode": "PO20 8EA", "latitude": 50.769277, "longitude": -0.874423}
{"name": "WELL", "address": "114 LONDON ROAD\nHAZEL GROVE\nSTOCKPORT\nCHESHIRE", "postcode": "SK7 4AG", "latitude": 53.381826, "longitude": -2.124918}
{"name": "WELL", "address": "28 BENSON ROAD\nBIRCHWOOD CENTRE\nBIRCHWOOD\nWARRINGTON, CHESHIRE", "postcode": "WA3 7PQ", "latitude": 53.414449, "longitude": -2.527676}
{"name": "MANOR PHARMACY", "address": "CHANDLER HOUSE\nPOOLSTOCK LANE\nWIGAN", "postcode": "WN3 5HL", "latitude": 53.529393, "longitude": -2.643772}
{"name": "BOOTS", "address": "40-42 BRUNSWICK SHOPP CTR\nMARCHMONT STREET\n\nLONDON", "postcode": "WC1N 1AE", "latitude": 51.52418, "longitude": -0.123922}
{"name": "RIVERSIDE CARE PHARMACY", "address": "RIVERSIDE MEDICAL CENTRE\n23 MARYLEBONE ROAD\nMARCH\nCAMBRIDGESHIRE", "postcode": "PE15 8BG", "latitude": 52.551522, "longitude": 0.082495}
{"name": "WELL", "address": "MIDDLETON ROAD\nCHADDERTON\nOLDHAM", "postcode": "OL9 0LH", "latitude": 53.545559, "longitude": -2.142182}
{"name": "MILLERS CHEMIST", "address": "114 BELGRAVE ROAD\nLONGTON\nSTOKE-ON-TRENT", "postcode": "ST3 4LR", "latitude": 52.979033, "longitude": -2.132641}
{"name": "BOOTS", "address": "3/4 QUEEN STREET\nMARKET RASEN\nLINCOLNSHIRE", "postcode": "LN8 3EH", "latitude": 53.387375, "longitude": -0.336448}
{"name": "ALLIED PHARMACY CALLINGTON", "address": "17-18 FORE STREET\n\nCALLINGTON\nCORNWALL", "postcode": "PL17 7AE", "latitude": 50.502955, "longitude": -4.315549}
{"name": "BOOTS", "address": "57 THE ASHLEY CENTRE\n\nEPSOM\nSURREY", "postcode": "KT18 5DB", "latitude": 51.332157, "longitude": -0.26855}
{"name": "BOOTS", "address": "7-11 CALVERLEY ROAD\n\nTUNBRIDGE WELLS\nKENT", "postcode": "TN1 2TE", "latitude": 51.134704, "longitude": 0.264486}
{"name": "WELL", "address": "58-60 KING STREET\n\nNEWCASTLE\nSTAFFORDSHIRE", "postcode": "ST5 1HX", "latitude": 53.014035, "longitude": -2.219184}
{"name": "PYRAMID PHARMACY", "address": "1 CROWN STREET\n\nACTON\nLONDON", "postcode": "W3 8SA", "latitude": 51.507391, "longitude": -0.2738}
{"name": "WELL", "address": "DRILLFIELD ROAD\n\nNORTHWICH\nCHESHIRE", "postcode": "CW9 5HN", "latitude": 53.257918, "longitude": -2.511476}
{"name": "WELLCARE PHARMACY", "address": "2 CASTLE AVENUE\n \nRASTRICK", "postcode": "HD6 3HT", "latitude": 53.694045, "longitude": -1.790728}
{"name": "WELL", "address": "620 HUDDERSFIELD ROAD\nRAVENSTHORPE\nDEWSBURY\nWEST YORKSHIRE", "postcode": "WF13 3HL", "latitude": 53.678866, "longitude": -1.664711}
{"name": "WELL", "address": "UNIT 3A KINGSMEAD SQUARE\nKINGSMEAD\nNORTHWICH\nCHESHIRE", "postcode": "CW9 8UW", "latitude": 53.243123, "longitude": -2.519646}
{"name": "RIVERVIEW PHARMACY", "address": "10 THE ALMA,LEANDER DRIVE\nRIVERVIEW PARK\nGRAVESEND\nKENT", "postcode": "DA12 4NG", "latitude": 51.41833, "longitude": 0.393774}
{"name": "VINEYARD PHARMACY", "address": "241 ELGIN AVENUE\n\n\nLONDON", "postcode": "W9 1NJ", "latitude": 51.530253, "longitude": -0.18584}
{"name": "LALYS CHEMISTS", "address": "3 - 5 KINGSTON ROAD\n\nPORTSMOUTH\nHAMPSHIRE", "postcode": "PO1 5RX", "latitude": 50.807146, "longitude": -1.077374}
{"name": "DROITWICH PHARMACY", "address": "OMBERSLEY STREET EAST\nDROITWICH SPA\n\nWORCESTERSHIRE", "postcode": "WR9 8RD", "latitude": 52.266877, "longitude": -2.153493}
{"name": "HERBERT PHARMACY", "address": "36-38 HERBERT ROAD\nPLUMSTEAD\nLONDON", "postcode": "SE18 3SH", "latitude": 51.480543, "longitude": 0.069416}
{"name": "BOOTS", "address": "UNIT 5\nRIVERSIDE RETAIL PARK\nALBION WAY\nNORWICH", "postcode": "NR1 1WR", "latitude": 52.622982, "longitude": 1.306047}
{"name": "BLAKEBERRY LTD", "address": "9 HIGH STREET SOUTH\nEAST HAM\nLONDON", "postcode": "E6 6EN", "latitude": 51.531475, "longitude": 0.055765}
{"name": "HIGHEM PHARMACY", "address": "ST.PETER'S HEALTH CENTRE\nSPARKENHOE STREET\nLEICESTER\nLEICESTERSHIRE", "postcode": "LE2 0TA", "latitude": 52.631081, "longitude": -1.119069}
{"name": "WARECROSS PHARMACY", "address": "40 CHRISTIAN CLOSE\n\nHODDESDON\nHERTFORDSHIRE", "postcode": "EN11 9FF", "latitude": 51.776844, "longitude": -0.015859}
{"name": "MORRISONS PHARMACY", "address": "DUNSLOW ROAD\nCROSSGATES\nSCARBOROUGH\nNORTH YORKSHIRE", "postcode": "YO11 3YN", "latitude": 54.239054, "longitude": -0.416528}
{"name": "BLAKEBERRY LTD", "address": "96 HIGH STREET SOUTH\nEAST HAM\nLONDON", "postcode": "E6 3RL", "latitude": 51.527037, "longitude": 0.05604}
{"name": "PYRAMID PHARMACY", "address": "6 FIR TREE PLACE\nCHURCH ROAD\nASHFORD\nSURREY", "postcode": "TW15 2PH", "latitude": 51.43241, "longitude": -0.46159}
{"name": "PAVILION PHARMACY", "address": "9 BRIGHTON TERRACE\nBRIXTON\nLONDON", "postcode": "SW9 8DJ", "latitude": 51.461633, "longitude": -0.116397}
{"name": "ASPIRE PHARMACY", "address": "23 HIGH STREET\nSIDCUP\nBEXLEY\nKENT", "postcode": "DA14 6EQ", "latitude": null, "longitude": null}
{"name": "MORRISONS PHARMACY", "address": "FLATT WALKS\n \nWHITEHAVEN\nCUMBRIA", "postcode": "CA28 7RW", "latitude": 54.544089, "longitude": -3.583263}
{"name": "MORRISONS PHARMACY", "address": "WOOSEHILL COURT\n \nWORKINGHAM\nBERKSHIRE", "postcode": "RG41 3SW", "latitude": 51.414397, "longitude": -0.854139}
{"name": "BROADWAY PHARMACY", "address": "172 BROADWAY\n\nBEXLEYHEATH\nKENT", "postcode": "DA6 7BN", "latitude": 51.457189, "longitude": 0.141905}
{"name": "KAMSONS PHARMACY", "address": "CATTESHALL MILL\nCATTESHALL ROAD\nGODALMING\nSURREY", "postcode": "GU7 1NJ", "latitude": 51.190672, "longitude": -0.596559}
{"name": "WELL", "address": "2-3 ANDERS SQUARE\nPERTON\nWOLVERHAMPTON", "postcode": "WV6 7QH", "latitude": 52.594819, "longitude": -2.202982}
{"name": "BATH ROAD PHARMACY", "address": "115-117 BATH ROAD\n\nHOUNSLOW\nMIDDLESEX", "postcode": "TW3 3BT", "latitude": 51.469113, "longitude": -0.372747}
{"name": "HOLMES CHAPEL PHARMACY", "address": "39-41 LONDON ROAD\nHOLMES CHAPEL\nCREWE\nCHESHIRE", "postcode": "CW4 7AP", "latitude": 53.201052, "longitude": -2.3562}
{"name": "BOOTS", "address": "173/175 CAMDEN HIGH ST\nCAMDEN TOWN\nLONDON", "postcode": "NW1 7JY", "latitude": 51.538245, "longitude": -0.142439}
{"name": "BOOTS", "address": "59/61 MITCHAM ROAD\nLONDON", "postcode": "SW17 9PB", "latitude": 51.427066, "longitude": -0.166325}
{"name": "DORRIDGE PHARMACY", "address": "UNIT 5 FOREST COURT\nDORRIDGE\nSOLIHULL\nWEST MIDLANDS", "postcode": "B93 8JA", "latitude": 52.372777, "longitude": -1.753028}
{"name": "H J EVERETT", "address": "UNIT 11 LOCKS HEATH\nDISTRICT CENTRE\nLOCKS HEATH\nHAMPSHIRE", "postcode": "SO31 6DX", "latitude": 50.863576, "longitude": -1.27498}
{"name": "BOOTS", "address": "172 GEORGE LANE\nSOUTH WOODFORD\nLONDON", "postcode": "E18 1AY", "latitude": 51.593832, "longitude": 0.02458}
{"name": "TESCO INSTORE PHARMACY", "address": "TESCO SUPERSTORE LTD\nALLERTON ROAD\nWOOLTON\nLIVERPOOL", "postcode": "L25 7SF", "latitude": 53.373779, "longitude": -2.873243}
{"name": "WELDRICKS PHARMACY", "address": "99 WALES ROAD\nKIVETON PARK\nSHEFFIELD", "postcode": "S26 6RA", "latitude": 53.340559, "longitude": -1.271256}
{"name": "TESCO INSTORE PHARMACY", "address": "TESCO STORE\nTAVISTOCK ROAD\nLAUNCESTON\nCORNWALL", "postcode": "PL15 9HG", "latitude": 50.629868, "longitude": -4.352198}
{"name": "BOOTS", "address": "43 KING STREET\n\nHAMMERSMITH\nLONDON", "postcode": "W6 9HW", "latitude": 51.492453, "longitude": -0.227907}
{"name": "BOOTS", "address": "UNIT 1 LSU3 (121)\nCENTRE COURT SHOPPING CTR\n4 QUEENS ROAD\nWIMBLEDON, LONDON", "postcode": "SW19 8YE", "latitude": 51.420813, "longitude": -0.205039}
{"name": "BOROUGH GREEN PHARMACY", "address": "42 HIGH STREET\nBOROUGH GREEN\nSEVENOAKS\nKENT", "postcode": "TN15 8BJ", "latitude": 51.292341, "longitude": 0.306459}
{"name": "FOUNTAIN STREET PHARMACY", "address": "15-15A FOUNTAIN STREET\n\nLEEK\nSTAFFORDSHIRE", "postcode": "ST13 6JS", "latitude": 53.106186, "longitude": -2.019064}
{"name": "ROADNIGHT CHEMISTS", "address": "88 STATION ROAD\n \nSIDCUP\nKENT", "postcode": "DA15 7DU", "latitude": 51.431463, "longitude": 0.102574}
{"name": "DAY NIGHT PHARMACY", "address": "UNIT 4 SWAN SHOP PRECINCT\nCHASE ROAD\nBURNTWOOD\nSTAFFORDSHIRE", "postcode": "WS7 0DW", "latitude": 52.677477, "longitude": -1.906911}
{"name": "LLOYDSPHARMACY", "address": "THE THORLEY CENTRE\n\nBISHOPS STORTFORD\nHERTFORDSHIRE", "postcode": "CM23 4EG", "latitude": 51.858644, "longitude": 0.144579}
{"name": "MORRISONS PHARMACY", "address": "COLLINGWOOD CENTRE\nPRESTON GRANGE ESTATE\nNORTH SHIELDS\nTYNE & WEAR", "postcode": "NE29 9QR", "latitude": 55.023178, "longitude": -1.456385}
{"name": "PYRAMID PHARMACY", "address": "5 THE HIGHWAY\n\nBEACONSFIELD\nBUCKINGHAMSHIRE", "postcode": "HP9 1QD", "latitude": 51.610436, "longitude": -0.645407}
{"name": "MORRISONS PHARMACY", "address": "TEESSIDE RETAIL PARK\nTHORNABY\nSTOCKTON-ON-TEES\nCLEVELAND", "postcode": "TS17 7BP", "latitude": 54.557896, "longitude": -1.275813}
{"name": "RODING PHARMACY", "address": "214 REDBRIDGE LANE EAST\nREDBRIDGE\nILFORD\nESSEX", "postcode": "IG4 5BQ", "latitude": 51.577016, "longitude": 0.045827}
{"name": "PYRAMID PHARMACY", "address": "19-21 STATION PARADE\nKEW\nRICHMOND\nSURREY", "postcode": "TW9 3PS", "latitude": 51.47744, "longitude": -0.286235}
{"name": "LLOYDSPHARMACY", "address": "9-10 BURTON SQUARE\nRISING BROOK\nSTAFFORD", "postcode": "ST17 9LT", "latitude": 52.787522, "longitude": -2.118965}
{"name": "BALMORAL CHEMIST", "address": "QUEENSVIEW MEDICAL CENTRE\nTHORNTON ROAD\nNORTHAMPTON", "postcode": "NN2 6LS", "latitude": 52.253351, "longitude": -0.903188}
{"name": "CHIEF CORNERSTONE LTD", "address": "4 EASTMEAD AVENUE\nGREENFORD\nMIDDLESEX", "postcode": "UB6 9RA", "latitude": 51.530596, "longitude": -0.363203}
{"name": "MANGAL PHARMACY", "address": "8 GREEN PLACE\n\nGREENWICH\nLONDON", "postcode": "SE10 0PE", "latitude": 51.500707, "longitude": 0.006169}
{"name": "BRITANNIA PHARMACY", "address": "THAMES VIEW HEALTH CENTRE\nBASTABLE AVENUE\nBARKING", "postcode": "IG11 0LG", "latitude": 51.527941, "longitude": 0.103861}
{"name": "GOR PHARMACY", "address": "147 MARSH ROAD\nPINNER\nMIDDLESEX", "postcode": "HA5 5PB", "latitude": 51.591404, "longitude": -0.381366}
{"name": "ESOMS CHEMIST", "address": "UNIT 5 MARKET PLACE\n34 PRESTWICK RD,STH OXHEY\nWATFORD\nHERTFORDSHIRE", "postcode": "WD19 7EU", "latitude": 51.627879, "longitude": -0.387393}
{"name": "ALLIED PHARMACY ELM PARK", "address": "2 TADWORTH PARADE\nELM PARK\nHORNCHURCH\nESSEX", "postcode": "RM12 5AS", "latitude": 51.549197, "longitude": 0.200255}
{"name": "TESCO INSTORE PHARMACY", "address": "BRANSTY ROW\nNORTH SHORE\nWHITEHAVEN\nCUMBRIA", "postcode": "CA28 7XY", "latitude": 54.552186, "longitude": -3.590148}
{"name": "TESCO INSTORE PHARMACY", "address": "TUCKER STREET\n\nWELLS\nSOMERSET", "postcode": "BA5 2DZ", "latitude": 51.207557, "longitude": -2.65322}
{"name": "HYPERCHEM PHARMACY", "address": "34 SALUSBURY ROAD\nQUEENS PARK\nLONDON", "postcode": "NW6 6NL", "latitude": 51.534348, "longitude": -0.204811}
{"name": "DRAYTON PRIME PHARMACY", "address": "274 HAVANT ROAD\nDRAYTON\nPORTSMOUTH\nHAMPSHIRE", "postcode": "PO6 1PA", "latitude": 50.846475, "longitude": -1.04657}
{"name": "WOODHOUSE PHARMACY", "address": "1 MARKET SQUARE\nWOODHOUSE\nSHEFFIELD", "postcode": "S13 7JX", "latitude": 53.358755, "longitude": -1.369604}
{"name": "B R LEWIS CHEMISTS", "address": "62-64 UPPER WICKHAM LANE\n \nWELLING\nKENT", "postcode": "DA16 3HQ", "latitude": 51.465832, "longitude": 0.109656}
{"name": "BELL PHARMACY BOW", "address": "520 ROMAN ROAD\n\n \nLONDON", "postcode": "E3 5ES", "latitude": 51.532708, "longitude": -0.0303}
{"name": "BOOTS", "address": "UNIT 4 HARDWICK RET. PARK\nCAMPBELLS MEADOW\nKING'S LYNN\nNORFOLK", "postcode": "PE30 4WP", "latitude": 52.737128, "longitude": 0.414388}
{"name": "BOOTS", "address": "153/155 BALHAM HIGH ROAD\nLONDON", "postcode": "SW12 9AU", "latitude": 51.443917, "longitude": -0.151896}
{"name": "WELL", "address": "CWS SUPERSTORE\n71-79 HIGH STREET\nWELLING\nKENT", "postcode": "DA16 1TU", "latitude": 51.462207, "longitude": 0.11074}
{"name": "BRITANNIA PHARMACY", "address": "LOXFORD POLYCLINIC\n417 ILFORD LANE\nILFORD\nESSEX", "postcode": "IG1 2SN", "latitude": 51.546491, "longitude": 0.076864}
{"name": "BOOTS", "address": "5 HEMPSTEAD VALLEY CENTRE\nHEMPSTEAD\nGILLINGHAM\nKENT", "postcode": "ME7 3PB", "latitude": 51.341628, "longitude": 0.573044}
{"name": "TESCO INSTORE PHARMACY", "address": "TELEGRAPH ROAD\nHESWALL\nWIRRAL\nMERSEYSIDE", "postcode": "CH60 7SL", "latitude": 53.328515, "longitude": -3.102862}
{"name": "MORRISONS PHARMACY", "address": "MORRISONS SUPERMARKET\nRUSHTON AVENUE, THORNBURY\nBRADFORD", "postcode": "BD3 7HZ", "latitude": 53.802814, "longitude": -1.71055}
{"name": "MORRISONS PHARMACY", "address": "UNIT 5 VICTORIA SHOP/CTR\nYOUNG STREET\nBRADFORD", "postcode": "BD8 9TP", "latitude": 53.797601, "longitude": -1.78786}
{"name": "IMPERIAL PHARMACY", "address": "139 EPSOM ROAD\nSUTTON\nSURREY", "postcode": "SM3 9EY", "latitude": 51.386555, "longitude": -0.210016}
{"name": "TESCO INSTORE PHARMACY", "address": "TESCO SUPERSTORE\nTEBOURBA WAY, MILLBROOK\nSOUTHAMPTON\nHAMPSHIRE", "postcode": "SO16 4QE", "latitude": 50.924004, "longitude": -1.445207}
{"name": "TESCO INSTORE PHARMACY", "address": "MATHER AVENUE\nALLERTON\nLIVERPOOL", "postcode": "L18 6HF", "latitude": 53.381527, "longitude": -2.906867}
{"name": "TRINITY - PHARMACY PLUS HEALTH", "address": "TRINITY MEDICAL CENTRE\nTHORNHILL STREET\nWAKEFIELD", "postcode": "WF1 1PG", "latitude": 53.679942, "longitude": -1.494838}
{"name": "KNIGHTS CENTRAL PHARMACY", "address": "18 MARKET STREET\n\nBROMSGROVE\nWORCESTERSHIRE", "postcode": "B61 8DA", "latitude": 52.336677, "longitude": -2.059389}
{"name": "TESCO INSTORE PHARMACY", "address": "THE PHARMACY,WALLINGFORD\nROAD,TESCO STORES\nDIDCOT\nOXFORDSHIRE", "postcode": "OX11 9BZ", "latitude": 51.605067, "longitude": -1.221519}
{"name": "TESCO INSTORE PHARMACY", "address": "CALLINGTON ROAD\nBRISLINGTON\nBRISTOL", "postcode": "BS4 5AY", "latitude": 51.432556, "longitude": -2.554622}
{"name": "ALLIED PHARMACY WHITBY", "address": "RIEVAULX ROAD\n\nWHITBY\nNORTH YORKSHIRE", "postcode": "YO21 1SD", "latitude": 54.485919, "longitude": -0.62317}
{"name": "LASER PHARMACY", "address": "854 STRATFORD ROAD\nSPARKHILL\nBIRMINGHAM", "postcode": "B11 4BS", "latitude": 52.44521, "longitude": -1.859122}
{"name": "TESCO INSTORE PHARMACY", "address": "TESCO STORE\nBROADFIELDS,BICESTER RD\nAYLESBURY\nBUCKINGHAMSHIRE", "postcode": "HP19 8BU", "latitude": 51.822888, "longitude": -0.835833}
{"name": "MORRISONS PHARMACY", "address": "THE METEOR CENTRE\nWHEATCROFT WAY\nDERBY", "postcode": "DE21 4RY", "latitude": 52.943708, "longitude": -1.462331}
{"name": "ARLINGTON ROAD PHARMACY", "address": "ARLINGTON RD MED PRACTICE\n1 ARLINGTON ROAD\nEASTBOURNE\nEAST SUSSEX", "postcode": "BN21 1DH", "latitude": 50.768189, "longitude": 0.277559}
{"name": "BOOTS", "address": "1263-1275 HIGH ROAD\n\nWHETSTONE\nLONDON", "postcode": "N20 9HS", "latitude": 51.63081, "longitude": -0.175506}
{"name": "BARKANTINE PHARMACY", "address": "BARKANTINE PRIMARY CC\n121 WESTFERRY ROAD\nMILLWALL", "postcode": "E14 8JH", "latitude": 51.500806, "longitude": -0.025725}
{"name": "BOOTS", "address": "9/15 CHURCH STREET\n\nLIVERPOOL", "postcode": "L1 1DA", "latitude": 53.405497, "longitude": -2.984664}
{"name": "BOOTS", "address": "UNIT E1 GAPTON HL RTL PK\nGAPTON HALL ROAD\nGREAT YARMOUTH\nNORFOLK", "postcode": "NR31 0NL", "latitude": 52.596387, "longitude": 1.71327}
{"name": "BIDDULP PHARMACY", "address": "1-3 TUNSTALL ROAD\nBIDDULPH\nSTOKE ON TRENT\nSTAFFORDSHIRE", "postcode": "ST8 6HJ", "latitude": 53.113462, "longitude": -2.177113}
{"name": "HASLEMERE PHARMACY", "address": "HASLEMERE HEALTH CENTRE\nCHURCH LANE\nHASLEMERE\nSURREY", "postcode": "GU27 2BQ", "latitude": 51.092107, "longitude": -0.707586}
{"name": "FAREHAM PHARMACY", "address": "UNIT 1 & 2\n95, HIGHLANDS ROAD\nFAREHAM\nHAMPSHIRE", "postcode": "PO15 6HZ", "latitude": 50.859882, "longitude": -1.208729}
{"name": "ELLIOTT STREET PHARMACY", "address": "177 ELLIOTT STREET\nTYLDESLEY\nMANCHESTER", "postcode": "M29 8DR", "latitude": 53.514075, "longitude": -2.465999}
{"name": "COHENS CHEMIST", "address": "16-18 MARKET STREET\nHOYLAND\nBARNSLEY\nSOUTH YORKSHIRE", "postcode": "S74 9QR", "latitude": 53.501292, "longitude": -1.438892}
{"name": "BOOTS", "address": "UNIT E RETAIL PARK\nBARN ROAD\nCONGLETON\nCHESHIRE", "postcode": "CW12 1LJ", "latitude": 53.170519, "longitude": -2.217798}
{"name": "WELLFIELD PHARMACY", "address": "WELLFIELD SURGERY\nOLDHAM ROAD\nROCHDALE\nLANCASHIRE", "postcode": "OL11 1AD", "latitude": 53.606581, "longitude": -2.147479}
{"name": "PICKUPS CHEMIST", "address": "20-21 BROADWAY PARADE\nCOLDHARBOUR LANE\nHAYES\nMIDDLESEX", "postcode": "UB3 3HF", "latitude": 51.510944, "longitude": -0.413215}
{"name": "SOMERSET GARDENS PHARMACY", "address": "4 CREIGHTON ROAD\n \n \nLONDON", "postcode": "N17 8NW", "latitude": 51.605338, "longitude": -0.073471}
{"name": "WELL", "address": "29 HIGH STREET\nYEADON\nLEEDS", "postcode": "LS19 7SP", "latitude": 53.866224, "longitude": -1.683414}
{"name": "QUEEN'S PHARMACY CENTRE", "address": "403 NUTHALL ROAD\nASPLEY\nNOTTINGHAM\nNOTTINGHAMSHIRE", "postcode": "NG8 5DB", "latitude": 52.977065, "longitude": -1.190377}
{"name": "MEDICHEM PHARMACY", "address": "34-35 WOODLEY PRECINCT\nWOODLEY\nSTOCKPORT\nCHESHIRE", "postcode": "SK6 1RJ", "latitude": 53.426162, "longitude": -2.101211}
{"name": "RUBERY LATE NIGHT PHARMACY", "address": "196 NEW ROAD\n\nRUBERY\nBIRMINGHAM", "postcode": "B45 9JA", "latitude": 52.393293, "longitude": -2.017449}
{"name": "COHENS CHEMIST", "address": "WOLDS HOUSE\nMEDFORTH STREET\nMARKET WEIGHTON\nEAST YORKSHIRE", "postcode": "YO43 3FF", "latitude": 53.864903, "longitude": -0.674786}
{"name": "OUR PHARMACY", "address": "HOPWOOD HOUSE\nTHE VINEYARD,LEES ROAD\nOLDHAM", "postcode": "OL4 1JN", "latitude": 53.542109, "longitude": -2.095467}
{"name": "MANCHESTER ROAD PHARMACY", "address": "264 MANCHESTER ROAD\n\nWARRINGTON\nCHESHIRE", "postcode": "WA1 3RB", "latitude": 53.396596, "longitude": -2.571248}
{"name": "ALLIED PHARMACY ARROWE PARK", "address": "ARROWE PARK HOSPITAL\nARROWE PARK ROAD\nUPTON\nWIRRAL", "postcode": "CH49 5PE", "latitude": 53.36964, "longitude": -3.096815}
{"name": "DAY LEWIS PHARMACY", "address": "FINCHAMPSTEAD SURGERY\n474-478 FINCHAMPSTEAD RD\nFINCHAMPSTEAD, WORKINGTON\nBERKSHIRE", "postcode": "RG40 3RG", "latitude": 51.375006, "longitude": -0.858108}
{"name": "MORLEY PHARMACY", "address": "2A CORPORATION STREET\nMORLEY\nLEEDS\nWEST YORKSHIRE", "postcode": "LS27 9NB", "latitude": 53.744776, "longitude": -1.605537}
{"name": "AL-SHAFA PHARMACY", "address": "UNIT 2&3 HILLSIDE BLDG\nBEESTON ROAD, BEESTON\nLEEDS\nWEST YORKSHIRE", "postcode": "LS11 6AY", "latitude": 53.777663, "longitude": -1.554733}
{"name": "NEW MILTON PHARMACY", "address": "48 STATION ROAD\nNEW MILTON\nHAMPSHIRE", "postcode": "BH25 6JX", "latitude": 50.754505, "longitude": -1.656177}
{"name": "BOOTS", "address": "UNIT 4A ST JAMES RTL PARK\nGRIMBALD CRAG ROAD\nKNARESBOROUGH\nNORTH YORKSHIRE", "postcode": "HG5 8PZ", "latitude": 54.0, "longitude": -1.443321}
{"name": "ORCHARD PHARMACY", "address": "ORCHARD MEDICAL PRACTICE\nSTOCKWELL GATE\nMANSFIELD\nNOTTINGHAMSHIRE", "postcode": "NG18 5GG", "latitude": 53.141121, "longitude": -1.206764}
{"name": "VICTORIA CENTRAL PHARMACY", "address": "VICTORIA CENTRAL PCC\nMILL LANE\nWALLASEY\nMERSEYSIDE", "postcode": "CH44 5UF", "latitude": 53.415672, "longitude": -3.045864}
{"name": "RUSHEY GREEN PHARMACY", "address": "THE PRIMARY CARE CENTRE\nHAWSTEAD ROAD\nCATFORD\nLONDON", "postcode": "SE6 4JH", "latitude": 51.449319, "longitude": -0.018045}
{"name": "BLACKWATER PHARMA", "address": "PRINCES ROAD\n \nMALDON\nESSEX", "postcode": "CM9 5GP", "latitude": 51.728379, "longitude": 0.68095}
{"name": "BRIGHOUSE PHARMACY", "address": "CHURCH LANE SURGERY\n24 CHURCH LANE\nBRIGHOUSE\nWEST YORKSHIRE", "postcode": "HD6 1AT", "latitude": 53.703064, "longitude": -1.782549}
{"name": "WITHINGTON PHARMACY", "address": "8 COPSON STREET\nWITHINGTON\nMANCHESTER", "postcode": "M20 3HE", "latitude": 53.433705, "longitude": -2.229695}
{"name": "WORKSOP PHARMACY", "address": "95-97 BRIDGE STREET\n\nWORKSOP\nNOTTINGHAMSHIRE", "postcode": "S80 1DL", "latitude": 53.302314, "longitude": -1.124355}
{"name": "BOOTS", "address": "17-19 KINGS STREET\n\nSOUTHWELL\nNOTTINGHAMSHIRE", "postcode": "NG25 0EH", "latitude": 53.078984, "longitude": -0.953814}
{"name": "ROSEBERY PHARMACY", "address": "ROSEBERY HEALTH CENTRE\nROSEBERY STREET\nLOUGHBOROUGH\nLEICESTERSHIRE", "postcode": "LE11 5DX", "latitude": 52.774303, "longitude": -1.22117}
{"name": "QUEENS SQUARE PHARMACY", "address": "38 THE QUEENS SQUARE\nADEYFIELD\nHEMEL HEMPSTEAD\nHERTFORDSHIRE", "postcode": "HP2 4ER", "latitude": 51.75601, "longitude": -0.450988}
{"name": "ASDA PHARMACY", "address": "ASDA STORES\nBRACKLEY STREET\nFARNWORTH\nBOLTON", "postcode": "BL4 9DT", "latitude": 53.547734, "longitude": -2.39702}
{"name": "ASDA PHARMACY", "address": "WARREN STREET\n\nSTOCKPORT", "postcode": "SK1 1UA", "latitude": 53.412557, "longitude": -2.156496}
{"name": "BOOTS", "address": "UNIT 7, THE BREWERY\nWATERLOO ROAD\nROMFORD\nESSEX", "postcode": "RM1 1AU", "latitude": 51.575982, "longitude": 0.180118}
{"name": "LALYS CHEMIST", "address": "1 GUILDHALL WALK\n\nPORTSMOUTH\nHAMPSHIRE", "postcode": "PO1 2RY", "latitude": 50.796323, "longitude": -1.092826}
{"name": "COHENS CHEMIST", "address": "THE HEALTH CENTRE\nHOLME LANE, CROSSHILLS\nNR KEIGHLEY\nNORTH YORKSHIRE", "postcode": "BD20 7LG", "latitude": 53.900231, "longitude": -1.990984}
{"name": "THE PHARMACY", "address": "20 CHURCH STREET\n\nWEYBRIDGE\nSURREY", "postcode": "KT13 8DX", "latitude": 51.37255, "longitude": -0.459741}
{"name": "COHENS CHEMIST", "address": "4 DICKSON HOUSE\nCROWN HEIGHTS,ALENCON LNK\nBASINGSTOKE\nHAMPSHIRE", "postcode": "RG21 7AH", "latitude": 51.267197, "longitude": -1.086322}
{"name": "RIVERSIDE PHARMACY", "address": "RIVERSIDE SURGERY\nBARNARD AVENUE\nBRIGG\nNORTH LINCOLNSHIRE", "postcode": "DN20 8AS", "latitude": 53.553584, "longitude": -0.491823}
{"name": "COHENS CHEMIST", "address": "WATERS GREEN MEDICAL CTR\nSUNDERLAND STREET\nMACCLESFIELD\nCHESHIRE", "postcode": "SK11 6JL", "latitude": 53.257973, "longitude": -2.12259}
{"name": "WILLOW PHARMACY", "address": "UNIT 2 WILLOW PARADE\nMEADFIELD ROAD, LANGLEY\nSLOUGH\nBERKSHIRE", "postcode": "SL3 8HN", "latitude": 51.50381, "longitude": -0.541816}
{"name": "BOOTS", "address": "355-361 OXFORD STREE\n13-16 WOODSTOCK STREET\n\nLONDON", "postcode": "W1C 2JL", "latitude": 51.51429, "longitude": -0.14834}
{"name": "ASDA PHARMACY", "address": "ASDA SUPERSTORE\nPILSWORTH ROAD\nPILSWORTH\nBURY, LANCASHIRE", "postcode": "BL9 8RS", "latitude": 53.577875, "longitude": -2.273396}
{"name": "PEARL PHARMACY", "address": "31 CLAPHAM HIGH STREET\nCLAPHAM\nLONDON", "postcode": "SW4 7TR", "latitude": 51.464247, "longitude": -0.130787}
{"name": "MOUNTS HEALTH CENTRE PHARMACY", "address": "THE MOUNTS MEDICAL CENTRE\nCAMPBELL STREET\nNORTHAMPTON\nNORTHAMPTONSHIRE", "postcode": "NN1 3DS", "latitude": 52.242231, "longitude": -0.897266}
{"name": "ASDA PHARMACY", "address": "ASDA SUPERSTORE\n31 ROEHAMPTON VALE\nROEHAMPTON\nLONDON", "postcode": "SW15 3DT", "latitude": 51.43936, "longitude": -0.246308}
{"name": "ASDA PHARMACY", "address": "ASDA SUPERSTORE\n130 CHASE SIDE\nSOUTHGATE\nLONDON", "postcode": "N14 5PW", "latitude": 51.634285, "longitude": -0.131318}
{"name": "I WARMAN FREED", "address": "45 GOLDERS GREEN ROAD\n \n \nLONDON", "postcode": "NW11 8EL", "latitude": 51.57225, "longitude": -0.198296}
{"name": "ASDA PHARMACY", "address": "ASDA SUPERSTORE\nORMSKIRK ROAD\nAINTREE\nLIVERPOOL", "postcode": "L10 3LN", "latitude": 53.491564, "longitude": -2.950437}
{"name": "SEVEN DAY CHEMIST", "address": "175A BELLEGROVE ROAD\nWELLING\nKENT", "postcode": "DA16 3QS", "latitude": 51.463461, "longitude": 0.100433}
{"name": "BOOTS", "address": "UNIT 1,THE CARLTON CTRE\nOUTER CIRCLE ROAD\nLINCOLN\nLINCOLNSHIRE", "postcode": "LN2 4WA", "latitude": 53.241623, "longitude": -0.507865}
{"name": "MIDNIGHT PHARMACY", "address": "354 GREAT HORTON ROAD\n\nBRADFORD", "postcode": "BD7 1QJ", "latitude": 53.787021, "longitude": -1.774287}
{"name": "OTFORD PHARMACY", "address": "4 HIGH STREET\n\nOTFORD\nKENT", "postcode": "TN14 5PQ", "latitude": 51.313312, "longitude": 0.18898}
{"name": "LINDSAY CHEMIST", "address": "CLIFTON ROAD\nKINGSTON-UPON-THAMES\nSURREY", "postcode": "KT2 6PF", "latitude": 51.413427, "longitude": -0.288406}
{"name": "WELL", "address": "756-758 CHESTERFIELD ROAD\nWOODSEATS\nSHEFFIELD", "postcode": "S8 0SE", "latitude": 53.343, "longitude": -1.478294}
{"name": "PHARMACY WORLD", "address": "45 REDHILL ROAD\nROSEWORTH\nSTOCKTON-ON-TEES\nCLEVELAND", "postcode": "TS19 9BX", "latitude": 54.588048, "longitude": -1.341989}
{"name": "WELL", "address": "361-363 LONDON ROAD\nWEST END\nSTOKE-ON-TRENT", "postcode": "ST4 5AN", "latitude": 52.995737, "longitude": -2.191589}
{"name": "WELL", "address": "16-20 BALL HAYE STREET\nLEEK\nSTAFFORDSHIRE", "postcode": "ST13 6JW", "latitude": 53.106392, "longitude": -2.020767}
{"name": "ROYSTON PHARMACY", "address": "10 HIGH STREET\n\nROYSTON\nHERTFORDSHIRE", "postcode": "SG8 9AG", "latitude": 52.04735, "longitude": -0.023558}
{"name": "BOOTS", "address": "82 CASTLE STREET\nEDGELEY\nSTOCKPORT", "postcode": "SK3 9AL", "latitude": 53.401628, "longitude": -2.168383}
{"name": "GREEN LANE-PHARMACY+HEALTH", "address": "101-103 GREEN LANE\nACOMB\nYORK\nNORTH YORKSHIRE", "postcode": "YO24 4PS", "latitude": 53.950335, "longitude": -1.120044}
{"name": "WELL", "address": "THE QUAY\nILBERT ROAD\nKINGSBRIDGE\nDEVON", "postcode": "TQ7 1EB", "latitude": 50.282816, "longitude": -3.777746}
{"name": "BOOTS", "address": "1A BRAMHALL LANE SOUTH\nBRAMHALL\nSTOCKPORT", "postcode": "SK7 1AL", "latitude": 53.357803, "longitude": -2.166001}
{"name": "TAMWORTH PHARMACY", "address": "146 MASEFIELD DRIVE\nLEYFIELDS\nTAMWORTH\nSTAFFORDSHIRE", "postcode": "B79 8JA", "latitude": 52.643436, "longitude": -1.701762}
{"name": "WELL", "address": "THE MEDICAL CENTRE\nHEMSBY ROAD\nMARTHAM\nNORFOLK", "postcode": "NR29 4QG", "latitude": 52.703766, "longitude": 1.63909}
{"name": "BOOTS", "address": "23 HIGH STREET\nASCOT\nBERKSHIRE", "postcode": "SL5 7HG", "latitude": 51.410845, "longitude": -0.674087}
{"name": "COX & ROBINSON PHARMACY", "address": "80 HIGH STREET\nIRTHLINGBOROUGH\nWELLINGBOROUGH\nNORTHAMPTONSHIRE", "postcode": "NN9 5PX", "latitude": 52.32437, "longitude": -0.61655}
{"name": "MILEUSNIC CHEMIST", "address": "133 UPPER COMMERCIAL ST\nBATLEY\n \nWEST YORKSHIRE", "postcode": "WF17 5DH", "latitude": 53.714746, "longitude": -1.636637}
{"name": "PERIVILLE LTD", "address": "9 WINGATE PARADE\nTHE WILLOWS\nGRIMSBY\nNORTH EAST LINCOLNSHIRE", "postcode": "DN37 9DR", "latitude": 53.569917, "longitude": -0.128107}
{"name": "JHOOTS PHARMACY", "address": "BRIDPORT MEDICAL CENTRE\nWEST ALLINGTON\nBRIDPORT\nDORSET", "postcode": "DT6 5BN", "latitude": 50.734243, "longitude": -2.768036}
{"name": "EWELL HOUSE PHARMACY", "address": "2-3 EWELL HOUSE PARADE\nEPSOM ROAD\nEWELL\nSURREY", "postcode": "KT17 1NP", "latitude": 51.3471, "longitude": -0.250766}
{"name": "DAY LEWIS PHARMACY", "address": "85 NEWBEGIN\nHORNSEA\n\nEAST RIDING OF YORKSHIRE", "postcode": "HU18 1PA", "latitude": 53.911967, "longitude": -0.167932}
{"name": "LUXTONS THE PHARMACY", "address": "67 COWICK STREET\nST THOMAS\nEXETER\nDEVON", "postcode": "EX4 1HW", "latitude": 50.714529, "longitude": -3.544857}
{"name": "HENLEY PHARMACY", "address": "135 HIGH STREET\nHENLEY-IN-ARDEN\nSOLIHULL\nWEST MIDLANDS", "postcode": "B95 5AZ", "latitude": 52.292449, "longitude": -1.77991}
{"name": "WELLCARE PHARMACY", "address": "68 MALVERN WAY\n \nHASTINGS\nEAST SUSSEX", "postcode": "TN34 3PX", "latitude": 50.874561, "longitude": 0.598089}
{"name": "MILLER PHARMACY", "address": "22 CHEAPSIDE\n \nSPENNYMOOR\nCO DURHAM", "postcode": "DL16 6DJ", "latitude": 54.700231, "longitude": -1.599448}
{"name": "HUNTLEY MOUNT PHARMACY", "address": "HUNTLEY MOUNT ROAD\n\nBURY", "postcode": "BL9 6JA", "latitude": 53.600201, "longitude": -2.27859}
{"name": "PAULTON PHARMACY", "address": "ELM HAYES HEALTH CENTRE\nCLANDOWN ROAD, PAULTON\nBRISTOL", "postcode": "BS39 7SF", "latitude": 51.300546, "longitude": -2.492756}
{"name": "WELL", "address": "26-30 RAINHALL ROAD\nBARNOLDSWICK\nCOLNE\nLANCASHIRE", "postcode": "BB18 5DR", "latitude": 53.915866, "longitude": -2.185994}
{"name": "ASHDALE PHARMACY", "address": "AYSTON ROAD\nNORTHGATE, UPPINGHAM\nOAKHAM", "postcode": "LE15 9NX", "latitude": 52.595116, "longitude": -0.723609}
{"name": "PRETTYGATE PHARMACY", "address": "102 THE COMMONS\nPRETTYGATE\nCOLCHESTER\nESSEX", "postcode": "CO3 4NW", "latitude": 51.880647, "longitude": 0.86505}
{"name": "FACER PHARMACY", "address": "66 LIVERPOOL ROAD\nLONGTON\nPRESTON\nLANCASHIRE", "postcode": "PR4 5PB", "latitude": 53.727105, "longitude": -2.782062}
{"name": "DAY LEWIS PHARMACY", "address": "1 CHESTER ROAD\n \nNEWQUAY\nCORNWALL", "postcode": "TR7 2RT", "latitude": 50.4173, "longitude": -5.064661}
{"name": "PROSPECT PHARMACY", "address": "PROSPECT HOUSE\n121 LOWER STREET\nKETTERING\nNORTHAMPTONSHIRE", "postcode": "NN16 8DN", "latitude": 52.401531, "longitude": -0.733538}
{"name": "APPLEY BRIDGE PHARMACY", "address": "53 WOODNOOK ROAD\n\nAPPLEY BRIDGE", "postcode": "WN6 9JR", "latitude": 53.580924, "longitude": -2.707343}
{"name": "HARPER'S PHARMACY", "address": "12 HOLLINGBURY PLACE\n \nBRIGHTON\nEAST SUSSEX", "postcode": "BN1 7GE", "latitude": 50.844037, "longitude": -0.130158}
{"name": "WINTERHILL PHARMACY", "address": "2 FELLOWSFIELD WAY\nKIMBERWORTH\nROTHERHAM", "postcode": "S61 1NL", "latitude": 53.435375, "longitude": -1.395806}
{"name": "PEAK PHARMACY", "address": "49 BROOK STREET\n\nSUTTON-IN-ASHFIELD\nNOTTINGHAMSHIRE", "postcode": "NG17 1ES", "latitude": 53.122839, "longitude": -1.267337}
{"name": "WELL", "address": "UNIT 5\n15 ASHBURNHAM WAY\nCARLTON COLVILLE\nLOWESTOFT, SUFFOLK", "postcode": "NR33 8LG", "latitude": 52.457187, "longitude": 1.705996}
{"name": "WELL", "address": "MORRISONS SUPERSTORE\nUNION STREET\nHECKMONDWIKE\nWEST YORKSHIRE", "postcode": "WF16 0HL", "latitude": 53.707429, "longitude": -1.677527}
{"name": "SHERBURN VILLAGE PHARMACY", "address": "2 HARLEY TERRACE\nSHERBURN\nDURHAM", "postcode": "DH6 1DS", "latitude": 54.776728, "longitude": -1.505059}
{"name": "FAR LANE PHARMACY", "address": "3A FAR LANE\nWADSLEY\nSHEFFIELD\nSOUTH YORKSHIRE", "postcode": "S6 4FA", "latitude": 53.409335, "longitude": -1.507692}
{"name": "ANDOVER PHARMACY", "address": "5 SHAKESPEARE AVENUE\n\nANDOVER\nHAMPSHIRE", "postcode": "SP10 3DR", "latitude": 51.21413, "longitude": -1.503644}
{"name": "MUXTON PHARMACY", "address": "9C FIELDHOUSE DRIVE\nMUXTON\nTELFORD\nSHROPSHIRE", "postcode": "TF2 8JQ", "latitude": 52.723348, "longitude": -2.431255}
{"name": "CREST PHARMACY - HUMBER ROAD", "address": "9 HUMBER ROAD\n\nCOVENTRY\nWEST MIDLANDS", "postcode": "CV3 1AT", "latitude": 52.403324, "longitude": -1.48668}
{"name": "MIDWAY PHARMACY", "address": "195-197 BUTCHER HILL\n\nLEEDS", "postcode": "LS16 5BQ", "latitude": 53.833257, "longitude": -1.604377}
{"name": "KNIGHTS RUBERY PHARMACY", "address": "102 NEW ROAD\nRUBERY\nBIRMINGHAM", "postcode": "B45 9HY", "latitude": 52.392321, "longitude": -2.022092}
{"name": "WELL", "address": "BROADWAY\n \nBARNTON", "postcode": "CW8 4LF", "latitude": 53.27167, "longitude": -2.544179}
{"name": "DAY LEWIS PHARMACY", "address": "100 THORNHILL STREET\nCALVERLEY, PUDSEY\nLEEDS\nWEST YORKSHIRE", "postcode": "LS28 5PD", "latitude": 53.828911, "longitude": -1.687444}
{"name": "TUDOR PHARMACY", "address": "TUDOR COURT\nWOOTTON HOPE DR, WOOTTON\nNORTHAMPTON\nNORTHAMPTONSHIRE", "postcode": "NN4 6FF", "latitude": 52.203351, "longitude": -0.875386}
{"name": "MANOR PHARMACY", "address": "3 LEYTON GREEN\n\nHARPENDEN\nHERTFORDSHIRE", "postcode": "AL5 2TE", "latitude": 51.81503, "longitude": -0.356007}
{"name": "LIME TREE PHARMACY", "address": "LIME TREE AVENUE\nFINDON VALLEY\nWORTHING\nWEST SUSSEX", "postcode": "BN14 0DL", "latitude": 50.848816, "longitude": -0.395859}
{"name": "TOTAL CARE PHARMACY", "address": "81 MIDDLETONS LANE\nHELLESDON\nNORWICH", "postcode": "NR6 5SR", "latitude": 52.663651, "longitude": 1.262301}
{"name": "MW SHADFORTH", "address": "49 HIGH STREET\nBILLERICAY\nESSEX", "postcode": "CM12 9AX", "latitude": 51.626403, "longitude": 0.418064}
{"name": "TUCKERS PHARMACY", "address": "61 LONDON ROAD\nCOWPLAIN\nWATERLOOVILLE\nHAMPSHIRE", "postcode": "PO8 8UJ", "latitude": 50.894426, "longitude": -1.018519}
{"name": "WASH COMMON PHARMACY", "address": "MONKS LANE\n \nNEWBURY\nBERKS", "postcode": "RG14 7RW", "latitude": 51.381717, "longitude": -1.336125}
{"name": "MW PHILLIPS (SUTTON COLDFIELD) LTD", "address": "26 ROUGH ROAD\nKINGSTANDING\nBIRMINGHAM", "postcode": "B44 0UY", "latitude": 52.553959, "longitude": -1.881458}
{"name": "WOODSEATS PHARMACY", "address": "NEW WOODSEATS LIB & HCFAC\n900 CHESTERFIELD ROAD\nSHEFFIELD", "postcode": "S8 0SH", "latitude": 53.339926, "longitude": -1.480299}
{"name": "ARCHWAY PHARMACY", "address": "19-21 KIMBERWORTH ROAD\n\nROTHERHAM\nSOUTH YORKSHIRE", "postcode": "S61 1AB", "latitude": 53.430182, "longitude": -1.373546}
{"name": "STRACHAN'S CHEMIST", "address": "CHESHAM PRECINCT\n166A WALMERSLEY ROAD\nBURY", "postcode": "BL9 6LL", "latitude": 53.602437, "longitude": -2.290648}
{"name": "WELL", "address": "BOROUGHBRIDGE ROAD\nNORTHALLERTON\nNORTH YORKSHIRE", "postcode": "DL7 8BN", "latitude": 54.327342, "longitude": -1.446456}
{"name": "JHOOTS PHARMACY", "address": "PORTISHEAD MED GROUP HC\nVICTORIA SQ, PORTISHEAD\nBRISTOL", "postcode": "BS20 6AQ", "latitude": 51.482805, "longitude": -2.767318}
{"name": "GREWAL CHEMIST", "address": "38-40 CHILWELL ROAD\nBEESTON\nNOTTINGHAM", "postcode": "NG9 1EJ", "latitude": 52.924894, "longitude": -1.218039}
{"name": "SMART PHARM", "address": "111 OLD STREET\nCLEVEDON\nBRISTOL", "postcode": "BS21 6BP", "latitude": 51.43774, "longitude": -2.845547}
{"name": "GILES & WARD PHARMACY", "address": "21 CHURCH STREET\n\nOSSETT\nWEST YORKSHIRE", "postcode": "WF5 9DG", "latitude": 53.682658, "longitude": -1.581409}
{"name": "ALWOODLEY PHARMACY", "address": "2 THE AVENUE\nALWOODLEY\nLEEDS\nWEST YORKSHIRE", "postcode": "LS17 7BE", "latitude": 53.857007, "longitude": -1.560987}
{"name": "SHERWOOD HOUSE PHARMACY", "address": "SHERWOOD HOUSE MED CENTRE\n9 SANDON ROAD, EDGBASTON\nBIRMINGHAM", "postcode": "B17 8DP", "latitude": 52.473851, "longitude": -1.959426}
{"name": "THE PHARMACY AT MAYFAIR & CLINIC", "address": "4 SHEPHERD MARKET\n\n\nLONDON", "postcode": "W1J 7QB", "latitude": 51.506396, "longitude": -0.146196}
{"name": "BERINSFIELD PHARMACY", "address": "BERINSFIELD HEALTH CENTRE\nFANE DRIVE, BERINSFIELD\nWALLINGFORD\nOXFORDSHIRE", "postcode": "OX10 7NE", "latitude": 51.663989, "longitude": -1.176774}
{"name": "WELL", "address": "PRIMARY HEALTH CARE CTR\nBRADBURY ROAD, WHARTON\nWINSFORD\nCHESHIRE", "postcode": "CW7 3GY", "latitude": 53.195539, "longitude": -2.504342}
{"name": "WELL", "address": "1 PARK LANE\nCONGLETON\nCHESHIRE", "postcode": "CW12 3DN", "latitude": 53.161868, "longitude": -2.204472}
{"name": "CURRIE'S CHEMIST", "address": "81 TOWNGATE\nWYKE\nBRADFORD\nWEST YORKSHIRE", "postcode": "BD12 9JQ", "latitude": 53.737686, "longitude": -1.76812}
{"name": "ORCHARD STREET PHARMACY", "address": "ORCHARD ST MEDICAL CENTRE\nORCHARD STREET\nIPSWICH", "postcode": "IP4 2PU", "latitude": 52.057257, "longitude": 1.161833}
{"name": "BASSINGBOURN PHARMACY", "address": "24 HIGH STREET\nBASSINGBOURN\nROYSTON\nHERTFORDSHIRE", "postcode": "SG8 5NE", "latitude": 52.078066, "longitude": -0.056627}
{"name": "LOWMOOR PHARMACY", "address": "LOW MOOR MED CTR, 29 THE\nPLANTATIONS, WOODSIDE\nBRADFORD", "postcode": "BD12 0TH", "latitude": 53.75385, "longitude": -1.769897}
{"name": "P ROBINSON PHARMACY", "address": "VAUXHALL HEALTH CENTRE\nLIMEKILN LANE\nLIVERPOOL", "postcode": "L5 8XR", "latitude": 53.419394, "longitude": -2.984564}
{"name": "O'BRIENS PHARMACY", "address": "HEALTH & WELLBEING CENTRE\nDOCK STREET\nFLEETWOOD\nLANCASHIRE", "postcode": "FY7 6HP", "latitude": 53.920956, "longitude": -3.010416}
{"name": "JARDINES PHARMACY", "address": "THE COTTONS\nMEADOW LANE\nRAUNDS\nNORTHAMPTONSHIRE", "postcode": "NN9 6UA", "latitude": 52.345648, "longitude": -0.547783}
{"name": "WELDRICKS PHARMACY", "address": "2 PRINCESS STREET\nWOODLANDS\nDONCASTER\nSOUTH YORKSHIRE", "postcode": "DN6 7LX", "latitude": 53.562744, "longitude": -1.19188}
{"name": "WELL", "address": "2 LONGFORD ROAD WEST\nREDDISH\nSTOCKPORT\nCHESHIRE", "postcode": "SK5 6ET", "latitude": 53.445476, "longitude": -2.160577}
{"name": "DAY LEWIS PHARMACY", "address": "1-2 LODDON VALE CENTRE\nHURRICANE WAY, WOODLEY\nREADING\nBERKSHIRE", "postcode": "RG5 4UX", "latitude": 51.454615, "longitude": -0.888275}
{"name": "HOLLOWOOD CHEMIST", "address": "69 WASHWAY ROAD\n\nSALE\nCHESHIRE", "postcode": "M33 7SS", "latitude": 53.422516, "longitude": -2.328288}
{"name": "ARC PHARMACY", "address": "PORTHOLME ROAD\n\nSELBY\nNORTH YORKSHIRE", "postcode": "YO8 4QH", "latitude": 53.780904, "longitude": -1.068173}
{"name": "MOIR PHARMACY", "address": "MOIR MEDICAL CENTRE\nREGENT STREET\nLONG EATON\nDERBYSHIRE", "postcode": "NG10 1QQ", "latitude": 52.898622, "longitude": -1.27255}
{"name": "LARK RISE PHARMACY", "address": "UNIT 2,WESTFIELD CENTRE\nLARK RISE\nBRACKLEY\nNORTHAMPTONSHIRE", "postcode": "NN13 6JR", "latitude": 52.037452, "longitude": -1.153678}
{"name": "BOOTS", "address": "212 UPPINGHAM ROAD\n \nLEICESTER", "postcode": "LE5 0QG", "latitude": 52.642365, "longitude": -1.088309}
{"name": "F.P.WATSON LIMITED", "address": "2 BEASTMARKET HILL\nOLD MARKET SQUARE\nNOTTINGHAM\nNOTTINGHAMSHIRE", "postcode": "NG1 6FB", "latitude": 52.953141, "longitude": -1.151457}
{"name": "TELEPHONE HOUSE PHARMACY", "address": "71 HIGH STREET\n\nSOUTHAMPTON\nHAMPSHIRE", "postcode": "SO14 2NW", "latitude": 50.897568, "longitude": -1.403752}
{"name": "ALBERT WILDE THE PHARMACY", "address": "WEST VIEW HEALTH VILLAGE\nBROADWAY\nFLEETWOOD\nLANCASHIRE", "postcode": "FY7 8GU", "latitude": 53.912667, "longitude": -3.033843}
{"name": "STONEHOUSE PHARMACY", "address": "HIGH STREET MEDICAL CTRE\n31 HIGH STREET\nSTONEHOUSE\nGLOUCESTERSHIRE", "postcode": "GL10 2NG", "latitude": 51.747097, "longitude": -2.282777}
{"name": "LAXTONS PHARMACY", "address": "45 HIGH ROAD\n \nBROXBOURNE\nHERTFORDSHIRE", "postcode": "EN10 7HX", "latitude": 51.748301, "longitude": -0.018649}
{"name": "BRITANNIA PHARMACY", "address": "429-431 HIGH ROAD\n \nWOODFORD GREEN\nLONDON", "postcode": "IG8 0XE", "latitude": 51.61013, "longitude": 0.021795}
{"name": "NEW ROAD PHARMACY", "address": "188 NEW ROAD\nCROXLEY GREEN\nRICKMANSWORTH\nHERTFORDSHIRE", "postcode": "WD3 3HD", "latitude": 51.648031, "longitude": -0.447148}
{"name": "BOOTS", "address": "15 NORTH ROAD\n\nCLACTON-ON-SEA\nESSEX", "postcode": "CO15 4DA", "latitude": 51.805128, "longitude": 1.154724}
{"name": "CARERX", "address": "UNITS 1-5\nREAR OF 95-98, BANCROFT\nHITCHIN\nHERTFORDSHIRE", "postcode": "SG5 1NQ", "latitude": 51.951201, "longitude": -0.276255}
{"name": "MANGAL PHARMACY", "address": "71 SHERARD ROAD\nELTHAM\n \nLONDON", "postcode": "SE9 6ER", "latitude": 51.454715, "longitude": 0.049463}
{"name": "HORTON PHARMACY", "address": "HORTON LOCAL CENTRE\nPELMAN WAY\nEPSOM\nSURREY", "postcode": "KT19 8HJ", "latitude": 51.346128, "longitude": -0.28425}
{"name": "BARRONS CHEMIST", "address": "158A TOOTING HIGH STREET\n\nTOOTING\nLONDON", "postcode": "SW17 0RT", "latitude": 51.424951, "longitude": -0.171386}
{"name": "CHURCHFIELDS PHARMACY", "address": "211 HIGH ROAD\nSOUTH WOODFORD\nLONDON", "postcode": "E18 2PB", "latitude": 51.599315, "longitude": 0.020128}
{"name": "MATTOCK LANE CHEMIST", "address": "8 ST JOHNS PARADE\nEALING\nLONDON", "postcode": "W13 9LL", "latitude": 51.509592, "longitude": -0.316912}
{"name": "WANSTEAD PHARMACY", "address": "75-77 HIGH STREET\n\nWANSTEAD\nLONDON", "postcode": "E11 2AE", "latitude": 51.578239, "longitude": 0.026237}
{"name": "WELL", "address": "54 HIGHER HILLGATE\nHILLGATE\nSTOCKPORT", "postcode": "SK1 3PX", "latitude": 53.403779, "longitude": -2.15353}
{"name": "BIRCH PHARMACY", "address": "67 NORTON WAY NORTH\n\nLETCHWORTH\nHERTFORDSHIRE", "postcode": "SG6 1BH", "latitude": 51.982834, "longitude": -0.224141}
{"name": "BRITANNIA PHARMACY", "address": "2 BRAMINGHAM PARK CENTRE\nWHITEHORSE VALE\nLUTON", "postcode": "LU3 4AD", "latitude": 51.920011, "longitude": -0.438045}
{"name": "H.A. MCPARLAND", "address": "118-120 COWLEY ROAD\n\nUXBRIDGE", "postcode": "UB8 2LX", "latitude": 51.539597, "longitude": -0.481419}
{"name": "CLERKENWELL PHARMACY", "address": "44 EXMOUTH MARKET\n\n\nLONDON", "postcode": "EC1R 4QE", "latitude": 51.525846, "longitude": -0.108919}
{"name": "CLOCKWORK PHARMACY LTD", "address": "741 BARKING ROAD\nPLAISTOW\nLONDON", "postcode": "E13 9ER", "latitude": 51.5304, "longitude": 0.037535}
{"name": "BAKER ST PHARMACY", "address": "304 BAKER STREET\n\nENFIELD\nMIDDLESEX", "postcode": "EN1 3LD", "latitude": 51.662132, "longitude": -0.078828}
{"name": "LAWLEY PHARMACY", "address": "FARRIERS GREEN\nLAWLEY\nTELFORD", "postcode": "TF4 2LL", "latitude": 52.674849, "longitude": -2.480204}
{"name": "CENTRAL PHARMACY", "address": "LINTONVILLE MEDICAL GROUP\nLINTONVILLE TERRACE\nASHINGTON\nNORTHUMBERLAND", "postcode": "NE63 9UT", "latitude": 55.183776, "longitude": -1.570274}
{"name": "STOURPORT (SMC) PHARMACY", "address": "STOURPORT MEDICAL CENTRE\nDUNLEY ROAD\nSTOURPORT-ON-SEVERN\nWORCESTERSHIRE", "postcode": "DY13 0AA", "latitude": 52.335398, "longitude": -2.28383}
{"name": "DR PHARMACY", "address": "351 DUNSTABLE ROAD\n \nLUTON", "postcode": "LU4 8BY", "latitude": 51.889758, "longitude": -0.441683}
{"name": "ZAFASH PHARMACY", "address": "233-235 OLD BROMPTON ROAD\n\n\nLONDON", "postcode": "SW5 0EA", "latitude": 51.489435, "longitude": -0.189867}
{"name": "ALSTON PHARMACY", "address": "FRONT STREET\n \nALSTON\nCUMBRIA", "postcode": "CA9 3QP", "latitude": 54.812454, "longitude": -2.439486}
{"name": "FITTLEWORTH MEDICAL LIMITED", "address": "UNIT 8 BLENHEIM COURT\n62 BREWERY ROAD\n\nLONDON", "postcode": "N7 9NT", "latitude": 51.544572, "longitude": -0.124139}
{"name": "SOUTH YORKSHIRE OSTOMY SUPPLIES LTD", "address": "UNIT A9\nMEADOWBANK INDUSTRIAL EST\nHARRISON STREET\nROTHERHAM, S.YORKSHIRE", "postcode": "S61 1EE", "latitude": 53.42843, "longitude": -1.384181}
{"name": "RAPIDCARE", "address": "KOPPA HOUSE\nNAPIER WAY\nCRAWLEY", "postcode": "RH10 9RA", "latitude": 51.128972, "longitude": -0.171697}
{"name": "ROCIALLE DIRECT", "address": "72 FURTHERWICK ROAD\n \nCANVEY ISLAND\nESSEX", "postcode": "SS8 7AJ", "latitude": 51.521232, "longitude": 0.592282}
{"name": "BOOTS", "address": "7 GEORGE YARD\n\nBRAINTREE\nESSEX", "postcode": "CM7 1RB", "latitude": 51.87869, "longitude": 0.550074}
{"name": "PEAK PHARMACY", "address": "56-60 VICTORIA STREET\nSHIREBROOK\nMANSFIELD\nNOTTINGHAMSHIRE", "postcode": "NG20 8AQ", "latitude": 53.203208, "longitude": -1.213374}
{"name": "WYMESWOLD PHARMACY LTD", "address": "2A HOTON ROAD\nWYMESWOLD\n\nLEICESTER", "postcode": "LE12 6UA", "latitude": 52.803547, "longitude": -1.11122}
{"name": "BECKSIDE PHARMACY", "address": "MALTONGATE\nTHORNTON-LE-DALE\nPICKERING\nNORTH YORKSHIRE", "postcode": "YO18 7RJ", "latitude": 54.230012, "longitude": -0.721829}
{"name": "PEACHES PHARMACY", "address": "185 HALESOWEN ROAD\nOLD HILL, CRADLEY HEATH\nWARLEY\nWEST MIDLANDS", "postcode": "B64 6HF", "latitude": 52.476221, "longitude": -2.067784}
{"name": "IQ PHARMACY", "address": "14 PRINCESS PARADE\n\nBURY\nLANCASHIRE", "postcode": "BL9 0QL", "latitude": 53.591649, "longitude": -2.295258}
{"name": "BOOTS", "address": "32 MARKET STREET\n\nASHBY DE LA ZOUCH\nLEICESTERSHIRE", "postcode": "LE65 1AL", "latitude": 52.746479, "longitude": -1.472571}
{"name": "JACKMANS PHARMACY", "address": "6 IVEL COURT\nJACKMANS ESTATE\nLETCHWORTH\nHERTFORDSHIRE", "postcode": "SG6 2NH", "latitude": 51.970287, "longitude": -0.210225}
{"name": "NEWPORT PHARMACY", "address": "65 NEWPORT STREET\nBOLTON", "postcode": "BL1 1NE", "latitude": 53.577167, "longitude": -2.428873}
{"name": "CROFT PHARMACY", "address": "4 DELAVAL TERRACE\n\nBLYTH\nNORTHUMBERLAND", "postcode": "NE24 1DJ", "latitude": 55.127762, "longitude": -1.512051}
{"name": "BEER PHARMACY", "address": "FORE STREET\nBEER\nSEATON\nDEVON", "postcode": "EX12 3JJ", "latitude": 50.699005, "longitude": -3.093638}
{"name": "ELGON CHEMISTS", "address": "6-8 NAZEINGBURY PARADE\nNAZEING\nESSEX", "postcode": "EN9 2JL", "latitude": 51.735601, "longitude": 0.010836}
{"name": "MEDICLINIC PHARMACY", "address": "2-4 LONGSHAW ROAD\n\nMAIDSTONE\nKENT", "postcode": "ME15 9JD", "latitude": 51.239825, "longitude": 0.557156}
{"name": "BOOTS", "address": "THE SHIPGATES CENTRE\nMEALHOUSE LANE\nBOLTON", "postcode": "BL1 1DF", "latitude": 53.57925, "longitude": -2.427583}
{"name": "WELDRICKS PHARMACY", "address": "DARNALL PRIMARY CARE CTR\nMAIN ROAD\nSHEFFIELD", "postcode": "S9 4QH", "latitude": 53.384852, "longitude": -1.408849}
{"name": "EVEREST PHARMACY DIDSBURY", "address": "2A LANE END ROAD\nDIDSBURY\nMANCHESTER", "postcode": "M19 1WA", "latitude": 53.420911, "longitude": -2.212276}
{"name": "DAY LEWIS PHARMACY", "address": "11 MARKET PLACE\nMASHAM\nRIPON\nNORTH YORKSHIRE", "postcode": "HG4 4DZ", "latitude": 54.221883, "longitude": -1.656036}
{"name": "BOOTS", "address": "151A COWLEY ROAD\n\nOXFORD\nOXFORDSHIRE", "postcode": "OX4 1UT", "latitude": 51.747418, "longitude": -1.235067}
{"name": "DAY LEWIS PHARMACY", "address": "19 MARKET PLACE\nMIDDLETON-IN-TEESDALE\nBARNARD CASTLE\nCOUNTY DURHAM", "postcode": "DL12 0QG", "latitude": 54.624827, "longitude": -2.083169}
{"name": "VANTAGE CHEMIST", "address": "2 IMPERIAL BUILDINGS\nDURHAM ROAD, BIRTLEY\nCHESTER-LE-STREET\nCO.DURHAM", "postcode": "DH3 1LG", "latitude": 54.896818, "longitude": -1.577788}
{"name": "HAY MILLS PHARMACY", "address": "1222 COVENTRY ROAD\nHAY MILLS\nBIRMINGHAM", "postcode": "B25 8BY", "latitude": 52.463189, "longitude": -1.828397}
{"name": "KING'S CHEMIST", "address": "359 LANCASTER ROAD\nTORRISHOLME\nMORECAMBE\nLANCASHIRE", "postcode": "LA4 6RL", "latitude": 54.066094, "longitude": -2.83389}
{"name": "HORBURY ROAD PHARMACY LTD", "address": "186 HORBURY ROAD\n\nWAKEFIELD\nWEST YORKSHIRE", "postcode": "WF2 8BQ", "latitude": 53.674178, "longitude": -1.518554}
{"name": "TEESSIDE PHARMACY", "address": "1-3 NEWTON MALL\nCLEVELAND CENTRE\nMIDDLESBROUGH", "postcode": "TS1 2NW", "latitude": 54.574896, "longitude": -1.236559}
{"name": "BIERLEY PHARMACY", "address": "73A HAMBLEDON AVENUE\nBIRELEY\nBRADFORD", "postcode": "BD4 6AX", "latitude": 53.766744, "longitude": -1.730492}
{"name": "IDLE PHARMACY", "address": "7 THE GREEN\nIDLE\nBRADFORD", "postcode": "BD10 9PT", "latitude": 53.83534, "longitude": -1.730357}
